COUNTY_NAME;ADDRESS;LONGITUDE;LATITUDE
Adalar;AltInordu Cad. No: 7;29.1315489268862;40.8744636432511
Adalar;Büyükada Mah. Recep Koç cad No: 43-45;29.131383;40.874186
Adalar;Büyükada RECEP KOÇ CAD. No:25;29.129939;40.87458
Adalar;Heybeliada Mah AyyIldIz Cad. No:32/1;29.097985;40.8773202
Adalar;HEYBELIADA MAH AYYILDIZ CAD. Prenset Pansiyon No:40;29.100705;40.876796
Adalar;Heybeliada Mah. AyyIldIz Cad. No:49;29.0997214115446;40.8784133209924
Adalar;Heybeliada Mh. AyyIldIz Cad. No:15;29.100257;40.877176
Adalar;Heybeliada RIhtIm Cd. No:1/B;29.101164;40.876861
Adalar;KInalIada SAHILHANELER CD. No.4/A;29.055302;40.908413
Adalar;Maden Mah Ayayorgi Tepesi Mevki Sok.Büyükada No:1;29.1162786;40.8487749
Adalar;Nizam Mah. Halikamas Sok. No:3/1 Büyükada;29.1283227;40.8732439
Adalar;şehit Recep Koç Cad şehit Recep Koç Cad No:36;29.129949;40.873069
Arnavutköy;ADNAN MENDERES MAH SAMANTEPE SOK. NO:2;28.704471;41.213163
Arnavutköy;Adnan Menderes Mah. Ceren Sok. No:17;28.704923;41.218131
Arnavutköy;ANADOLU MAH GÜLLÜBAHÇE SOKAK NO:1-5/1;28.75066;41.188274
Arnavutköy;ANADOLU MAH LOZAN SOK NO:24/A;28.748978;41.183821
Arnavutköy;ANADOLU MAH NECIP FAZIL CAD. NO.169/A-B-C;28.755982370;41.1861339
Arnavutköy;Anadolu Mah. Bilgili Sok. No:38;28.751020;41.190021
Arnavutköy;Anadolu Mah. Erberk Sok. No:9;28.755147;41.190508
Arnavutköy;Anadolu Mah. Gaziosmanpaşa Cad. No:8/A;28.74516574596588;41.18159706809772
Arnavutköy;Anadolu Mah. Hoca Ahmet Yesevi Cad. Haydar Apt. No:15;28.744383177806725;41.1852395754226
Arnavutköy;Anadolu Mah. Hoca Ahmet Yesevi Cad. No:173/B;28.755264;41.187072
Arnavutköy;Anadolu Mah. Hoca Ahmet Yesevi Cad. No:194;28.756851270558734;41.18643500898245
Arnavutköy;Anadolu Mah. Lozan Sok. No:24/A;28.74678;41.183826
Arnavutköy;Anadolu Mah. Necip FazIl Cad. No:125;28.751958075587897;41.18595315563936
Arnavutköy;Anadolu Mah. Nursema Cad. 1106 Sok.  No:1;28.750771721733482;41.19330969796516
Arnavutköy;Anadolu Mah. Ocak Sok No:1-5A;28.755433540604216;41.1896317511236
Arnavutköy;Anadolu Mah. Sezgin Sok. No:1/3;28.74686622046094;41.186909615616
Arnavutköy;Anadolu Mah. Tamer Sok. 13-15 A/3;28.746807349230522;41.18334486954451
Arnavutköy;Anadolu Mah. YIldIrIm BeyazIt Cad. No:6/A;28.741342;41.184623
Arnavutköy;Anadolu Mah. YIldIrIm BeyazIt. Cad. 6/A;28.741342;41.184623
Arnavutköy;Anadolu Mahallesi Barende SokağI 13/20;28.74669370381564;41.1885487459477
Arnavutköy;ANADOLU MAHALLESI NECIIP FAZIL CADDESI NO:107/A;28.750293;41.185806
Arnavutköy;ANADOLU MAHALLESI ORTAKÖY SOKAK NO:1-3/A;28.742266;41.187816
Arnavutköy;ANADOLU MH MÜCEVHER SK NO26/2;29.069224;41.021575
Arnavutköy;ANADOLU MH. Necip FazIl Cd. No:41;28.745607;41.184238
Arnavutköy;ANADOLU MH. Samimi Sk. (232. Sk.) No:1;28.751676;41.18819
Arnavutköy;ANADOLU MH. YIldIrIm BeyazIt Caddesi 53;28.744226;41.190301
Arnavutköy;Ansdolu Mah. Mimar Sinan Cad. No:63/A-1;28.748611;41.187928
Arnavutköy;ARNAVUTKÖY ARNAVUTKÖY ARNAVUTKÖY;28.72102;41.191764
Arnavutköy;ARNAVUTKÖY ARNAVUTKÖY ARNAVUTKÖY;28.755445;41.195349
Arnavutköy;Arnavutköy Merkez Mah Düldül Sok No:11/A;28.739183;41.184557
Arnavutköy;Arnavutköy Merkez Mah. Eski Edirne AsfaltI Cad. No:1223/A;28.787158;41.153945
Arnavutköy;ARNAVUTKÖY MERKEZ Mah. FATIH Cad. No: 23 B;28.7463105;41.1793747
Arnavutköy;ARNAVUTKÖY MERKEZ MAH. FATIH CAD. NO:8/B-2;28.741514;41.183985
Arnavutköy;Arnavutköy Merkez Mah. Necip FazIl Cad. No:6b/1 ;28.74535;41.184079
Arnavutköy;Arnavutköy Merkez Mah. Yenice Sok. No:1/3a;28.744770936995213;41.179237124582144
Arnavutköy;ARNAVUTKÖY MERKEZ MAHALLESI AYşIL SOKAK NO:17/A;28.742541;41.183281
Arnavutköy;ARNAVUTKÖY MERKEZ MH 23 NISAN CD NO4/A;28.734574;41.183708
Arnavutköy;ARNAVUTKÖY MERKEZ MH. Eski Edirne AsfaltI Caddes 185-5A B;28.74617;41.179403
Arnavutköy;ARNAVUTKÖY MERKEZ MH. Gaziosmanpaşa Cd. No:1;28.745636;41.183143
Arnavutköy;ARNAVUTKÖY MERKEZ MH. Genç Osman Caddesi 17;28.739913;41.182594
Arnavutköy;ARNAVUTKÖY MERKEZ MH. Semih Sokak 2;28.736926;41.185508
Arnavutköy;ATATÜRK MH. Gelibolu Caddesi 7/8/9;28.757121;41.189625
Arnavutköy;Boğazköy Istiklal Mah. Eski Edirne AsfaltI Cad. No:1146/1;28.815285849954904;41.136797210315194
Arnavutköy;Boğazköy Istiklal Mah. Özgülüm Sok. 3 A-B;28.766002578970745;41.18179760781344
Arnavutköy;Boğazköy Yunus Emre Mah. Otuz Ağustos Cad. ÇamlIca Sok. No: 7;28.759501329304445;41.18371696242111
Arnavutköy;Bolluca Mah. Abdullah Gül Cad. No: 22 / A;28.763873662056824;41.19966280906924
Arnavutköy;Bolluca Mah. Battalgazi Cad. No:14;28.765739;41.199253
Arnavutköy;Bolluca Mah. Mavi göl Cad. No:3/A;28.7630427;41.1983139
Arnavutköy;BOLLUCA MAHALLESI KOCA YUSUF CADDESI  SAKIZAğACIMEVKII NO:70/A;28.767409;41.204338
Arnavutköy;Bolluca Merkez Battal Gazi 5;28.766187;41.200063
Arnavutköy;BOLLUCA MH KOCA YUSUF CD NO12-16/A12-16/B12-16/C;28.765474;41.200876
Arnavutköy;BOLLUCA MH. Battalgazi Caddesi 15-17;28.766576;41.20085
Arnavutköy;BOLLUCA MH. Mavigöl Caddesi 17;28.766407;41.200774
Arnavutköy;BOYALIK KÖYÜ HACI SALIMAğA CADDESI NO:5/B;28.629853;41.263271
Arnavutköy;DELIKLIKAYA MH. Irfan Sokak 3;28.665784;41.110929
Arnavutköy;Delikli Kaya Çiğdem Sok No:29 ;28.6530;41.1100
Arnavutköy;DURUSU MAH. YENIKÖY CAD. No:14;28.675126;41.302099
Arnavutköy;Durusu Mah. Yeniköy Cad. No:68/A;28.679712;41.303956
Arnavutköy;DURUSU MAHALLESI DURUSU YENIKÖY CADDESI NO68;28.679807;41.304054
Arnavutköy;Eski Edirne AsfaltI Istiklal Mah. No: 1224;28.78762410985615;41.15146078288629
Arnavutköy;Eski Edirne AsfaltI KarlIbayIr Mah. No:4;28.71973700000000;41.18345300000000
Arnavutköy;Fatih Cad. No:111;28.740510371166923;41.184903997400504
Arnavutköy;FATIH FATIH CAD. NO:27/A (ESKI NO:1364);28.73822;41.187078
Arnavutköy;Gaziosmanpaşa Taşoluk Toki 2.Bölge Ticaret Merkezi ;28.70826080000000;41.20756350000000
Arnavutköy;HadIm köy Mah. Cahit SItkI TarancI Cad.  AkpInar Apt. No: 21/F;28.613983;41.181888
Arnavutköy;HADIMKÖY 1. ETAP HURI SOK. 1;28.612392;41.181829
Arnavutköy;HadImköy Hastahane Mah. Ayasofya Cad. No:55;28.61769000000000;41.15733000000000
Arnavutköy;HadImköy Mah şebeke Cad. No:4/B;28.619854;41.163452
Arnavutköy;HadImköy Mah. Atatürk Cad. No:2;28.623759;41.156328
Arnavutköy;HadImköy Mah. Cahit SItkI TarancI Cad. No: 21;28.61243000000000;41.18174000000000
Arnavutköy;HadImköy Mah. Cahit SItkI TarancI Cad. No:21/F;28.612393;41.184107
Arnavutköy;HadImköy Mah. Doğukent Cad. 19b/19c;28.36402000000000;41.10567000000000
Arnavutköy;HadImköy Mah. Halit Ziya UşaklIgil Sok. No:25/27;28.62268000000000;41.15771000000000
Arnavutköy;HadImköy Mah. Mevlana Cad. No:128 R/2;28.612737;41.170249
Arnavutköy;HADIMKÖY MAHALLESI HARAÇÇI-HADIMKÖY YOLU CADDESI NO:290/B;28.623827;41.156431
Arnavutköy;HadImköy Mh Cahit SItkI TarancI Cd No:21/I-J;28.612411;41.181501
Arnavutköy;HADIMKÖY MH. Cahit SItkI TarancI Caddesi NO:7;28.612137;41.183581
Arnavutköy;HADIMKÖY MH. Hasan Polatkan Caddesi 2;28.62354;41.162832
Arnavutköy;HadImköy Mha. Atasofya Cad. No:26;28.621133;41.15612
Arnavutköy;HaraçcI Mah. HaraçcI Cad. No:42/A;28.706804;41.17334
Arnavutköy;HARAÇÇI MAH. BAYAK CAD. NO : 25/B;28.703890;41.179327
Arnavutköy;HaraççI Mah. Bayrak Cad. No: 6;28.70365000000000;41.17938000000000
Arnavutköy;HaraççI Mah. Göçmenkent Cad. No:15/1;28.42200000000000;41.10251000000000
Arnavutköy;HaraççI Mah. HaraççI HadImköy Yolu Cad. No:71;28.642487;41.157822
Arnavutköy;HARAÇÇI MH. şanlI Sokak NO:5;28.70365;41.174617
Arnavutköy;HARAÇÇI MH. Taşoluk Caddesi 32/1;28.706563;41.186829
Arnavutköy;HASTANE MAH AYASOFYA CAD NO:5/1;28.62203;41.155732
Arnavutköy;Hastane Mah. Ayasofya Cad. No:41/A;28.6169653;41.156584
Arnavutköy;Hastane Mah. Nurettin Sözen Cad. N:10;28.624320;41.145990
Arnavutköy;HASTANE MAH. NURETTIN SÖZEN CAD. NO:10 HADIMKÖY;28.623638;41.154181
Arnavutköy;Hastane Mah. şehit şaban Aydoğan Sok. No:30;28.62233700000000;41.15388200000000
Arnavutköy;HASTANE MAHALLESI, KORULUK SOKAK NO:30/A;28.616332;41.156262
Arnavutköy;HASTANE MH AKGÜNAY SOKAK GÜL APT NO:4/1-2;28.612625;41.157534
Arnavutköy;HASTANE MH. 10 10;28.613881;41.157982
Arnavutköy;HASTANE MH. Ayanoğlu Sk.HadImköy No:1;28.619408;41.151697
Arnavutköy;HASTANE MAHALLESI AYASOFYA CADDESI NO:13/A;28.621207;41.155984
Arnavutköy;HICRET MAH KIBRIS CAD NO:298/A;28.75426;41.197835
Arnavutköy;Hicrtet Mah. KIbrIs Cad. No:298/A;28.75436;41.19781
Arnavutköy;IMRAHOR MAH SEVBAN MEHMET CAD. NO:152;28.745960;41.215204
Arnavutköy;Imrahor Mah. Abdullah Gül Cad. No: 149/3;28.746833399903668;41.214949401923754
Arnavutköy;Imrahor Mah. Barbaros Cad. No:10/B;28.750903;41.214366
Arnavutköy;Imrahor Mah. Sevban Mehmet Cad. No:152;28.745934;41.215158
Arnavutköy;IMRAHOR MH. Abdullah Gül Cd. (Atatürk Cd.) No.91/3;28.747101;41.214619
Arnavutköy;Imrahor Mh. Abdullah Gül Cd. (Atatürk Cd.) NO:1;28.747101;41.214619
Arnavutköy;Islam Bey Mah. YIldIrIm BeyazIt Cad. No:37/A;28.742455;41.188642
Arnavutköy;Islam Bey Mah. YIldIrIm BeyazIt Cad. No:518/1;28.743727;41.190303
Arnavutköy;Islam Bey Mah. YIldIrIm BeyazIt Cad. No:81/B;28.747879;41.191546
Arnavutköy;ISLAMBEY FATIH NO.70/A;28.742686;41.1825
Arnavutköy;Islambey Mah. Bosna Cad. No: 3;28.74427829741798;41.1905289001623
Arnavutköy;ISLAMBEY MAH. FATIH CAD. NO:36/A-;28.7382;41.1842
Arnavutköy;Islambey Mah. KIbrIs Cad. Nizamiye Sok. No:4 ;28.752307;41.198238
Arnavutköy;ISLAMBEY MH. 224 Aktepe Sk. NO:1;28.742874;41.202011
Arnavutköy;Islambey Mh. Aktepe Sk. 224;28.742874;41.202011
Arnavutköy;ISLAMBEY MH. Fatih Caddesi 108;28.736479;41.189286
Arnavutköy;ISLAMBEY MH. Felek Sokak 23/25;28.748213;41.194024
Arnavutköy;ISLAMBEY MH. Kalyon Sokak 9;28.744043;41.193287
Arnavutköy;ISLAMBEY MH. KIbrIs Caddesi 271;28.746103;41.198572
Arnavutköy;ISTASYON MAH. şEHITLIK CAD. NO:37/B;28.622048;41.15579
Arnavutköy;Karaburun Köyü Istanbul Cad. No: 289;28.68057700000000;41.33843800000000
Arnavutköy;KARABURUN KÖYÜ PAZAR SOK NO:13/B;28.68199;41.345899
Arnavutköy;KARABURUN MH CUMLE SOKAK NO 1/2-3;28.680293;41.338066
Arnavutköy;Karaburun Sahil Yolu Cad. Karaburun Sahil Yolu Cad. NO:1;28.688192;41.339933
Arnavutköy;Karaburun:Karaburun köyü Sok.No:13/B;28.68209;41.34586
Arnavutköy;KARADOLAP MAH.VEHASTANE MAH. şEHIT şABAN AYDOğAN SOK NO 12/A;28.6225683;41.15439504
Arnavutköy;KARLIBAYIR MAH KARLIBAYIR CAD NO:10/1;28.715866;41.181762
Arnavutköy;KARLIBAYIR MAH KIZILERIK SOK NO:19-21;28.712938;41.184187
Arnavutköy;KarlIbayIr Mah, Selçuklu Cad, No:59/A-B;28.71309976904000;41.18549068903060
Arnavutköy;KarlIbayIr Mah. Bayrak Cad. No:80/A;28.711144;41.181452
Arnavutköy;KarlIbayIr Mah. Bayrak Cad. Pertev Sok. No:77 / 2;28.71074800000000;41.18203700000000
Arnavutköy;KarlIbayIr Mah. KIzIlerik Sok. No.19-21/8;28.7107603;41.1841463
Arnavutköy;KarlIbayIr Mah. KIzIlerik Sok. No:19-21;28.712928;41.184187
Arnavutköy;KARLIBAYIR MAHALLESI BAYRAK CADDESI NO92/A-B-C;28.71268;41.181709
Arnavutköy;KARLIBAYIR MAHALLESI SEVNUR SOKAK NO:2/A;28.7138213;41.1852091
Arnavutköy;KARLIBAYIR MH. Çoban Çeşme Sokak 1;28.711139;41.181386
Arnavutköy;KARLIBAYIR MH. Taşan Sokak 67;28.709625;41.185489
Arnavutköy;KarlInayiy Mah. KIzIl BayIr Sok. No:19-21/D;28.712946;41.184192
Arnavutköy;M.AKIF ERSOY MAH EGEMEN CAD NO:34/C;28.714268;41.198901
Arnavutköy;MAVIGÖL MH. Kocayusuf Cd. No:33;28.7669;41.2031
Arnavutköy;Mavigöl Mah. YeşilyalI Sok. No:7/B ;28.76532;41.20420
Arnavutköy;MEHMET AKIF ERSOY MH. Çelebi Cd.(IETT Toki KonutlarI Iç 5;28.707999;41.207653
Arnavutköy;Mehmet Akif Ersoy Mah. Egemen Cad. No:34/C;28.714172;41.198851
Arnavutköy;MERKEZ MAH ESKI EDIRNE ASFALTI CAD NO:1253 /B;28.741179;41.183395
Arnavutköy;Merkez Mah. 23 Nisan Cad. No: 2 / A;28.73476500000000;41.18395500000000
Arnavutköy;MERKEZ MAH. EDIRNE CAD no:1223/a;28.744244;41.181353
Arnavutköy;MERKEZ MAH. FATIH CAD. NO:15;28.740763;41.184835
Arnavutköy;Merkez Mah. Mehmet Akif Ersoy Cad. No:16/1;28.74025;41.18408
Arnavutköy;Merkez Mah. Nene Hatun Cad. Ova Sok. No: 1;28.740466212785535;41.18188375930753
Arnavutköy;MERKEZ MAH. YILDIRIM BEYAZIT CAD. NO:10/4;28.7416;41.1856
Arnavutköy;Merkez Mah.Düldül Sok No:9;28.739024;41.184490
Arnavutköy;Merkez Mah.Osmangazi Cad. No:23;28.766095109116982;41.201145952859534
Arnavutköy;MERKEZ MAHALLESI DÜLDÜL SOKAK No:23/23 B;28.740151;41.184776
Arnavutköy;MERKEZ MAHALLESI ESKI EDIRNE ASFALTI NO:1380;28.741978;41.183073
Arnavutköy;Mustafa Kemal Paşa Istiklal No:107/4;28.703342;41.002311
Arnavutköy;Mustafa Kemal Paşa Mah. Asuman Sok. 1a;28.73552800000000;41.18626800000000
Arnavutköy;Mustafa Kemal Paşa Mah. Eski Edirne AsfaltI Cad. No:1548;28.833439;41.133644
Arnavutköy;Mustafa Kemal Paşa Mah. Fatih Cad. 75/A;28.74128000000000;41.18378000000000
Arnavutköy;Mustafa Kemal Paşa Mah. Fatih Cad. No:113/A;28.7364627;41.1848234
Arnavutköy;MUSTAFA KEMAL PAşA MH KazIm Karabekir Cad 101-103-105-107;28.721016;41.191749
Arnavutköy;MUSTAFA KEMAL PAşA MH. 1476 Eski Edirne AsfaltI Caddesi NO:1;28.732257;41.185845
Arnavutköy;MUSTAFA KEMALPAşA MAH. ESKI EDIRNE AsfaltI Cad.  Kiptaş Konut No:1550/A;28.724699;41.185081
Arnavutköy;NECIP FAZIL CADDESI NECIP FAZIL CADDESI NO:43;28.745714;41.184272
Arnavutköy;Nene Hatun Mah. Fatih Cad. 234;28.72970800000000;41.19552500000000
Arnavutköy;Nene Hatun Mah. Fatih. Cad. No: 398;28.72845400000000;41.20391700000000
Arnavutköy;NENE HATUN MAHALLESI FATIH CADDESI NO:280A;28.727749;41.197434
Arnavutköy;Ömerli Mah. MezarlIk Sok. No: 1 - B;28.63915200000000;41.11398600000000
Arnavutköy;Ömerli Mah. Terme Sok. A.v.m ÇarşI No:13;28.638771;41.110862
Arnavutköy;Ömerli Mh Kiptaş HadImköy Ömerli KonutlarI No 6;28.63926;41.110223
Arnavutköy;ÖMERLI MH TERME SK NO:8;28.639099;41.110889
Arnavutköy;Ömerli Mh. Ömerli Sokak No:88-A/90-B;28.640192;41.114008
Arnavutköy;Taşoluk Istanbul Cad. No:1;28.72358000000000;41.19554000000000
Arnavutköy;Taşoluk Mah. Egemen Cad. No:1/1;28.72360500000000;41.19524500000000
Arnavutköy;TAşOLUK MH. Zengin Sk. (Sümbül Sk.) No:1;28.715703;41.197083
Arnavutköy;TAYAKADIN MAH TAYAKADIN-YASSIÖREN CAD NO:66A;28.69043;41.269043
Arnavutköy;TayakadIn Mah. Köy Içi Cad. No:7/2;28.688283;41.271929
Arnavutköy;TayakadIn Mah. TayakadIn YassIören Cad. No:66A;28.682223;41.263257
Arnavutköy;TERKOS KARABURUN CD. No:282;28.673798;41.3036
Arnavutköy;Terkos Mah. Durusu -Yeniköy Cad. No: 19/A;28.674867;41.302139
Arnavutköy;YAVUZ SELIM MH. Fatih Cd. (Terkos Cd.) No.420-422;28.726877;41.205977
Arnavutköy;Yavuz Selim Mah. Ertekin Sok. No:4C/1;28.939942;41.079784
Arnavutköy;Yavuz Selim Mah. KIbrIs Cad. No:3/A1;28.729084;41.204563
Arnavutköy;Yavuz Selim mah. KIrçeşme sok. No:1;28.7394927;41.2018684
Arnavutköy;Yavuz Selim Mah. Sokullu Mehmet Caddesi No:161;28.742515250461004;41.20217079209144
Arnavutköy;YAVUZ SELIM MAHALLESI TATLIPINAR SOKAK NO:8;28.741716;41.20348
Arnavutköy;Yavuz Selim Mh. Fatih Cd. (Terkos Cd.) 91/3;28.726877;41.205977
Arnavutköy;YENI ISTANBUL HAVAALANI IMRAHOR MAH ULUBATLI HASAN CAD. NO:1;28.797818;41.003015
Arnavutköy;Yeni Köy Mah. YeniKöy Cad. No:18/B;28.72254;41.31811
Arnavutköy;YENIKÖY KÖYÜ YENIKÖY CAD NO:18/B;28.722606;41.318044
Arnavutköy;YUNUS EMRE MAH MELIH.SOK. NO:17/A;28.75622318;41.1813038
Arnavutköy;Yunus Emre Mah. 30 Ağustos Cad. No:116;28.758073;41.183153
Arnavutköy;Yunus Emre Mah. 30 Ağustos Cad. No:73;28.761659679469787;41.185566674836465
Arnavutköy;Yunus Emre Mah. 30 Ağustos Cad. No:76;28.762813;41.185699
Arnavutköy;Yunus Emre Mah. 30 Ağustos Cad. No:81;28.760890;41.185262
Arnavutköy;YUNUS EMRE MAH. KESKIN SOK. NO:39/1;28.7581;41.185761
Arnavutköy;YUNUS EMRE MAHALLAESI 30 AğUSTOS CAD GÜRSES  SOKAK 31/A-B-C;28.76376;41.185713
Arnavutköy;YUNUS EMRE MH. 30 Ağustos Caddesi 103/B;28.759031;41.183775
Arnavutköy;YUNUS EMRE MH. 30 Ağustos Caddesi 129-133;28.757357;41.182533
Arnavutköy;YUNUS EMRE MH. 30 Ağustos Cd. (Mareşal Fevzi Çakma No:1;28.762186;41.185543
Arnavutköy;YUNUS EMRE MH. Hüma Caddesi NO:22;28.763382;41.186995
Arnavutköy;YUNUSEMRE MAHALLESI NECIP FAZIL CADDESI NO 243/A;28.76208;41.186316
Atasehir; Inönü Mah.KayIşdağI Cad.No:192;29.104612;40.965348
Atasehir;AşIk Veysel Mah. 3001 Cad. No:88/A Ataşehir;29.093787;41.004320
Atasehir;AşIkveysel Mah. 3002 Cad. No:1/1b;29.09166;41.001350
Atasehir;Atatürk Mah. Girne Cad. No:12;29.135455;40.986009
Atasehir;Atatürk Mah. Turgut Ozal BulvarI No:5/2 Gardenya Plaza  Önü No:5;29.127939;40.992488
Atasehir;Atatürk Mah. Vedat Günyol Cad. No:46/D;29.113966;40.990992
Atasehir;Barbaros Mah. Barbaros Cad. No:214/B;29.099434;40.989793
Atasehir;BostancI Köprüsü Iett DurağI YanI;29.104612;40.965348
Atasehir;Esatpaşa Mah. şehit Cahar Dudayev Cad. No: 145;29.086320;40.996051
Atasehir;Esatpaşa Mah. TaşkIn Cad. No:23;29.077963;41.005759
Atasehir;Esatpaşa Mahallesi Balabanağa Sokak 9/A;29.086472;41.007740
Atasehir;Ferhatpaşa Mah.Yeditepe Cad. No:94/B;29.170791;40.987016
Atasehir;Ferhatpaşa. Mah Yeditepe. Cad No:56;29.174157;40.986209
Atasehir;Icerenköy Mah. Hal Yolu Carrefour Önü Beyaz Evler DuragI;29.099717;40.975658
Atasehir;Içeren Köy Mah. Prof. Dr.  N. Erbakan Cad. No 41/A  Ataşehir;29.119802;40.973527
Atasehir;Içerenköy Mah. Halyolu Cad. No:1;29.100928;40.975132
Atasehir;Içerenköy Mah. KayIşdağI Cad.  Parlak Çim Apt. 16 C/4 ;29.107099;40.979315
Atasehir;Içerenköy Mah. Necmettin Erbakan Cad. No:116;29.124855;40.977620
Atasehir;Içerenköy Mah.KarslI Ahmet Cad.AydIn Sok.No:4;29.114637;40.973484
Atasehir;Inönü Mah. . Orkide Sok. No:8 Ataşehir ;29.134983;40.977598
Atasehir;Inönü Mah. KayIşdağI Cad. No:192;29.135632;40.978496
Atasehir;Inönü Mah. Nar Çiçeği Sok.No:11/B;29.14472;40.976601
Atasehir;Inönü Mah.Ulusu Cad.No:123/C;29.142422;40.976035
Atasehir;Inönü Mh Kar Sk KöşebaşI;29.142058;40.978269
Atasehir;KayIşdagI Mah. Egemenlik Sok. No.1/A;29.153433;40.975404
Atasehir;KayIşdağI  Mah. Uslu Cad. Dutluk  Sok. No:1/A ;29.155882;40.981816
Atasehir;KayIşdağI Mah. AkyazI Cad. No:25/B;29.142407;40.980376
Atasehir;KayIşdağI Mah. Dudullu Cad. Tapu BinasI Iett Otobüs DurağI YanI;29.125307;40.979072
Atasehir;KayIşdağI Mah. KayIşdağI Cad. No:255;29.153820;40.975162
Atasehir;KayIşdağI Mah. Uslu Cad. No:91/B;29.151077;40.980672
Atasehir;KayIşdağI Mah. Uslu Cad.No:93/D-1;29.151255;40.975404
Atasehir;KayIşdağI Mah.Uslu Cad.No:113;29.154108;40.980446
Atasehir;Küçükbakkalköy Mah. Fevzipaşa Cad. No:25/B;29.115948;40.979568
Atasehir;Küçükbakkalköy ş. Ali Yolu Cad. No:27;29.118116;40.983282
Atasehir;Mevlana Mah. Kuşkonmaz Sok. No:19/B;29.1566;40.9851
Atasehir;Mevlana Mah. Sakarya Cad. No: 34  Ataşehir;29.150151;40.988127
Atasehir;Mimar Sinan Mah. Atlas Sak. No:18/B;29.157095;40.984355
Atasehir;Mustafa Kemal Mah. 3091 Sokak No:38/D;29.0951;41.001
Atasehir;Örnek Mah. Libadiye Cad.  No:117/ B;29.074490;40.996453
Atasehir;Örnek Mah. şehit Cahar Dudayev Cad. HIzIr Reis IETT  DurağI YanI;29.085245;40.995704
Atasehir;Örnek Mh. Cahar Dudayev Cd. No:124;29.085728;40.995836
Atasehir;Yeni ÇamlIca Mah.Dursunbey Cad.16.Blok No:3;29.155631;40.991003
Atasehir;Yenisahra Mah .Yavuzer Cad. No:32/F;29.087980;40.986966
Atasehir;Yenisahra Mah. Karaman Cad. No:3/1a E5 Tamirhane DurağI;29.077976;40.990988
Atasehir;Yenisahra Mah. Mimarsinan Cad. No:28/A;29.091914;40.993157
Atasehir;Yenişehir Mah.. Necip FazIl BulvarI Pazar Sok.No:7 Halk Ekmek Ataşehir;29.147223;40.989832
Ataşehir;AKARSLI AHMET CAD AYDIN SOK NO:1;29.114738;40.973491
Ataşehir;AKYAZILI CD AKYAZILI CD D:4 NO:102;29.143957;40.986538
Ataşehir;Altunizade Mh.KIsIklI Cd.Haluk Türksoy Sk. Başaran-B Iş Mrk. 4/A;29.03875026902634;41.024300674508964
Ataşehir;AşIK VEYSEL MAH. 3001 CAD. No:204;29.0894;40.9979
Ataşehir;AşIK VEYSEL MAH. 3001. CAD. NO:146/;29.0915;41.0012
Ataşehir;AşIK VEYSEL MAH. Buğday Sok. No:2-5-6;29.092172;41.007603
Ataşehir;AşIk Veysel Mah. SarI Harman Sok. Saba Sitesi C Blok Apt. No:17-19 C;29.0907755403831;41.0079131917762
Ataşehir;AşIK VEYSEL MH 3001. CD. NO:6 4B;29.094159;41.004515
Ataşehir;ATAşEHIR ATATÜRK MH. 7 3. Cd. NO:1;29.135905;40.991273
Ataşehir;Ataşehir Blv. Mozaik Sok. ÇarşI T14 No: 29;29.1357876375087;40.9899688747279
Ataşehir;ATAşEHIR MAHALLESI MEVLANA CADDESI MANOLYAM SOKAK NO17;29.156898;40.983838
Ataşehir;ATATURK MAH GIRNE CAD NO:18;29.134527;40.986231
Ataşehir;ATATURK MAH. ATASEHIR BULVARI ATA 3-4 BLOK DUKKAN 15;29.122175;40.992574
Ataşehir;ATATÜRK ATAşEHIR BULVARI NO:12/B;29.1205223;40.992668
Ataşehir;Atatürk Mah Ertuğrul Gazi Sok Metropol Istanbul Sitesi D12 Blok No:2Z;29.121851;40.9939
Ataşehir;Atatürk Mah Ikinci Cad No:3;29.135;40.9864
Ataşehir;Atatürk Mah. Ataşehir Bul. ;29.1208872692182;40.9927222347005
Ataşehir;Atatürk Mah. Demokrasiş iCad. No:108/A;29.2213015;41.0150119
Ataşehir;Atatürk Mah. Ertuğrulgazi Sok. No:2/8;29.119339;40.994232
Ataşehir;Atatürk Mah. Girne Cad. No:12/A;29.135428;40.986084
Ataşehir;Atatürk Mah. Kerembey Sok. No:11 – 13;29.1416041845597;40.9882789514041
Ataşehir;ATATÜRK MAHALLESI ATAşEHIR BULVARI  D:18-D:19 NO:16;29.125175;40.992404
Ataşehir;Atatürk Mh. 3. Cadde No : 41-5C;29.13578;40.98999
Ataşehir;Atatürk Mh. Atapark Sk.  A3 Blok No:3/1A;29.14309;40.99013
Ataşehir;Atatürk Mh. Girne Cd. Ortanca Sk. 1 / Ab;29.1320111845597;40.9868193610316
Ataşehir;ATATÜRK MH. Sedef Caddesi 6;29.120397;40.992061
Ataşehir;ATATÜRK TURGUT ÖZAL BULVARI NO:72;29.1265415;40.9954975
Ataşehir;ATATÜRK TURGUT ÖZAL NO:7;29.1265415;40.9954975
Ataşehir;BARBAROS MAH BARBAROS CADDESI NO:68/A;29.0928;40.9933
Ataşehir;Barbaros Mah. ArdIç Cad. Kentplus 3.;29.1042;40.9969
Ataşehir;Barbaros Mah. ArdIç Sok. Kent ÇarşI içi No:22;29.110280;40.994408
Ataşehir;Barbaros Mah. Fulya Sok. No: 2c;29.1087608422301;40.9651780139525
Ataşehir;Barbaros Mah. Ihlamur Bulv. No:11/B;29.127606;40.983461
Ataşehir;BARBAROS MAH. MIMAR SINAN CAD. NO:1;29.098213;40.992917
Ataşehir;BARBAROS MAHALLESI BARBAROS CD NO:214;29.1016232;40.9897933
Ataşehir;BARBAROS MH MIMAR SINAN CD 97C;29.097638;40.993447
Ataşehir;Barbaros Mh. ArdIç Sk. No : 4 G2B/2;29.1014;40.9996
Ataşehir;BARBAROS MH. Kent Plus 6;29.10438;40.997195
Ataşehir;BaşIbüyük Cad. No: 20/3;29.1441421422298;40.9546288175778
Ataşehir;BULGURLU FETIH MAH KARAMAN CIFTLIK YOLU NO:25;29.074762;41.003126
Ataşehir;CENGIZ TOPEL CAD ALTAÇ APT KÜÇÜKBAKKALKÖY NO=44/19;29.119217;40.983041
Ataşehir;Cengiz Topel Cad. No: 53;29.1185584769863;40.9831929047679
Ataşehir;Çengeldere Mh. Çengeldere Cd. 101;29.148656438342094;41.09701426599869
Ataşehir;ESATPASA MH. Ali Fuat Başgil Cd. No:1;29.085364;41.007219
Ataşehir;ESATPASA MH. Ziya Paşa Cd. No.94/6-7;29.086356;41.005262
Ataşehir;ESATPAşA M YENIÇIğDEM SK NO :2/1A;29.0835438126687;40.9985465129612
Ataşehir;Esatpaşa Mah Adnan Menderes Cad No 64-70 b38-c39;29.082272;41.004326
Ataşehir;ESATPAşA MAH TAşKIN CAD NO:23;29.080231;41.005717
Ataşehir;ESATPAşA MAH ZIYAPAşA CAD NO:141;29.086223;41.005314
Ataşehir;Esatpaşa Mah. Adnan Menderes Cad. 38-40 /B;29.080808540189878;41.002460819689524
Ataşehir;Esatpaşa Mah. Çiğdemli Sok. No:8;29.085398755883304;40.99827571379142
Ataşehir;Esatpaşa Mah. General Tahsin YazIcI Cad. No: 20/1;29.081461726697356;41.00697457972185
Ataşehir;ESATPAşA MAH. M. FEVZI ÇAKMAK CAD. No: 43-45;29.082396;41.004606
Ataşehir;Esatpaşa Mah. şehit Cahar Dudayev Cad. No:159;29.0875;40.9962
Ataşehir;ESATPAşA Mah. ZIYAPAşA Cad. No: 107 B;29.085408;41.00387
Ataşehir;Esatpaşa Mah.Salih Omurtak Cad. No:33;29.08498736902587;41.00678029863366
Ataşehir;Esatpaşa Mahallesi Cahar dudayev cad no:153/155B;29.08708423;40.9961014
Ataşehir;ESATPAşA MAHALLESI MUHTAR MEHMET  SOKAK NO:2/1A;29.083454;41.00082
Ataşehir;ESATPAşA MAHALLESI MUSTAFAPAşA SOKAK NO:39/A;29.090523;41.006308
Ataşehir;ESATPAşA MH GENERAL TAHSIN YAZICI CAD NO:22A;29.081355;41.006905
Ataşehir;Esatpaşa Mh. Erdoğan Sokak No : 3-5A;29.08839;41.000733
Ataşehir;ESATPAşA MH. HACI BEKIR CD. NO :73/1/A-B;29.08749;41.002483
Ataşehir;ESATPAşA MH. Ziya Paşa Caddesi 18-20A/13;29.087607;40.997118
Ataşehir;ESKI ERENKÖY CAD KURUCULAR SITESI ORTA BLOK NO:1;29.107863;40.975565
Ataşehir;Eski Geneto ArsasI Hal BinasI YanI No:1;29.10004735;40.97988997
Ataşehir;Eski Karaman Libadiye Cad No:83/3 FetihparkI Emar Avm KarşIsI;29.0717708;41.0021512
Ataşehir;Eski Küçükbakkalköy Yolu No: 23;29.1105389406804;40.9739950872271
Ataşehir;Ferhapaşa Mah. G7 Sok. Birlik Apt. No: 88;29.1714562999014;40.9872630513809
Ataşehir;Ferhatpaşa Mah 4. sokak No:21 D/C;29.17697;40.985657
Ataşehir;Ferhatpaşa Mah. 4. Sokak No: 6-8;29.1772736538762;40.987117462979
Ataşehir;FERHATPAşA MAH. 9.SK 65/A;29.169387;40.985344
Ataşehir;FERHATPAşA MAH. G-15 SOK. No:24;29.176902;40.985135
Ataşehir;Ferhatpaşa Mah. Mareşal Fevzi Çakmak Cad. 114;29.1686570620299;40.9814546482152
Ataşehir;Ferhatpaşa Mah. Mareşal Fevzi Çakmak Cad. 31 / A;29.176864411547;40.9843416692304
Ataşehir;FERHATPAşA MAH. YEDITEPE CAD. No: 74;29.172666;40.986569
Ataşehir;FERHATPAşA MH 16 sk NO:57;29.168495;40.985683
Ataşehir;FERHATPAşA MH 17 SOKAK NO:1;29.176748;40.984632
Ataşehir;FERHATPAşA MH. YEDITEPE CD. NO: 88A;29.173669;40.986145
Ataşehir;FETIH MAH. ATATÜRK BULV. No: 37;29.076658;41.003854
Ataşehir;FETIH MH. 17 Atatürk Blv. (Baraj Yolu Cd.) NO:1;29.077581;41.002628
Ataşehir;FETIH MAH. BARAJ YOLU CAD. FUNDA SOK. No: 1;29.077318100255376;41.00663199181237
Ataşehir;FETIH MAHALLESI ÜNAYDIN SOKAK NO17/A;29.078313;41.004291
Ataşehir;FETIH MH BAğIMSIZLIK BULVARICD NO:7B;29.077925;41.002182
Ataşehir;Fevzi Paşa Mah. Fevzi Paşa Cad. No:35/2B;29.113997;40.980058
Ataşehir;FIrIn Cad. No: 6-8;29.1136882695172;40.9807469653533
Ataşehir;Halk Cad Halk Cad No:6;29.0998;40.9853
Ataşehir;ICERENKOY ICERENKOY NO:2;29.111346;40.970206
Ataşehir;ICERENKOY MAH KAYISDAGI YOLU CAD NO:16;29.117407;40.970431
Ataşehir;ICERENKOY MAH MERKEZ CAMI SOK NO:32/1;29.114349;40.969341
Ataşehir;INONU MAH KAYISDAGI CAD NO:314;29.1509;40.9762
Ataşehir;INONU MAH ULUSU CAD NO:21/A;29.1301;40.9769
Ataşehir;Iç Erenköy Mah. Prof Dr. Ali Tarlan Cad No:75/1;29.104612;40.965348
Ataşehir;IÇERENKÖY ALANALDI CD 2/1B;29.115923;40.96893
Ataşehir;IÇERENKÖY ALANALDI S NO:17;29.115151;40.968236
Ataşehir;Içerenköy KARSLI AHMET CAD. NO: 68/A/B/C/D;29.113579;40.97727
Ataşehir;IÇERENKÖY MAH ADEM SK NO:42A/B;29.116792;40.974408
Ataşehir;IÇERENKÖY MAH SONBAHAR SOK NO:3/A;29.110473;40.96942
Ataşehir;Içerenköy mah. AlanaldI cad No:19A;29.1150865;40.96806751
Ataşehir;IÇERENKÖY MAH. AlanaldI Cad. Sel Apt. No:43;29.114773;40.96665
Ataşehir;Içerenköy Mah. Asma Sok No:6/B;29.112973688826784;40.96243513300396
Ataşehir;Içerenköy Mah. AydIn Sok. No10/1C;29.115046;40.973217
Ataşehir;Içerenköy Mah. Ertaç Sok. No:4/A;29.1076487827113;40.9675309011992
Ataşehir;IÇERENKÖY MAH. KARSLI AHMET CAD AydIn Sk. No:28;29.117;40.9722
Ataşehir;Içerenköy Mah. KarslI Ahmet Cad. No:3;29.113636;40.976909
Ataşehir;Içerenköy Mah. KayIşdağI Cad. NO:8/A;29.10475;40.979277
Ataşehir;Içerenköy Mah. KayIşdağI Yolu Cad. No:12;29.117206;40.970162
Ataşehir;Içerenköy Mah. Küçükbakkalköy Yolu Cad. Kalender Iş Merkezi No: 47 A;29.1135588268886;40.9777567289731
Ataşehir;Içerenköy Mah. Necmettin Erbakan Cad. No:78;29.122610;40.975476
Ataşehir;Içerenköy Mah. Rakkas sok. 12/B;29.1125212;40.9692811
Ataşehir;Içerenköy Mah. Rakkas Sok. No:12/B;29.1134;40.9692
Ataşehir;Içerenköy Mah. Sonbahar Sok. No:34/A;29.112785;40.969155
Ataşehir;Içerenköy Mah. Üsküdar Cad. No: 14 B;29.10292804;40.97386762
Ataşehir;Içerenköy Meskenler No:1/A;29.1153582;40.9772418
Ataşehir;Içerenköy Mh Doğanay Sokak No : 19/1;29.113112;40.962958
Ataşehir;IÇERENKÖY MH KARSLI AHMET CD. NO:33-33A-33B;29.1125579991737;40.9726629929732
Ataşehir;IÇERENKÖY MH KÜÇÜKBAKKALKÖY YOLU CD NO:66/2A;29.113517;40.977189
Ataşehir;IÇERENKÖY MH. Daire:1 Prof. Dr. Necmettin 85/87 A;29.123656;40.976761
Ataşehir;IÇERENKÖY MH. IÇERENKÖY 29/B;29.1138;40.9692
Ataşehir;IÇERENKÖY MH. Karaman Çiftlik Yolu Caddesi 35;29.107809;40.975439
Ataşehir;IÇERENKÖY MH. KarslI Ahmet Caddesi 50-52;29.113298;40.974236
Ataşehir;IÇERENKÖY MH. KAVAKLI SK. No:11/A;29.119696;40.970463
Ataşehir;Içerenköy Mh. Necmettin Erbakan Cd. No : 11A;29.117133;40.970579
Ataşehir;IÇERENKÖY MH. Özyurt Sokak 67/A;29.1127;40.971075
Ataşehir;IÇERENKÖY MH. Sonbahar Sk. No.15;29.112189;40.969304
Ataşehir;IÇERENKÖY MH. Üsküdar-Içerenköy Yolu Caddesi 2/1;29.101967;40.974465
Ataşehir;INCIRKÖY MAH. FISTIK ALTI CAMII SK. No:15;29.10225808252148;41.11870163060091
Ataşehir;Inönü KayIşdağ No:192;29.135392;40.978426
Ataşehir;INÖNÜ MAH KAYIşDAğI CAD NO:250/A;29.1423;40.978047
Ataşehir;Inönü mah Nar çiçeği sok No:11/B;29.144424;40.975939
Ataşehir;INÖNÜ MAH ULUSU CADDESI GURBETOğLU APT no:1;29.133929;40.976318
Ataşehir;Inönü Mah. Kurtoğlubey Sk. No:14;29.1449573827114;40.9761032816449
Ataşehir;INÖNÜ MAH. ULUSU CAD. 132 A-B;29.147385;40.975113
Ataşehir;Inönü Mah. Ulusu Cad. Çağdaş Apt. No: 96;29.0507070845596;40.9830359650247
Ataşehir;INÖNÜ MAH. ULUSU CAD. ÇAMLIKLI SOK uzunal apt. No:34 /29-31-32;29.147375;40.975091
Ataşehir;Inönü Mah. Ulusu Cad. ÇamlIklI Sok. Uzunal Apt. 34;29.132620098053;40.9767717797882
Ataşehir;Inönü Mah. Ulusu Cad. Mürseloğlu Sok. No:1a/1;29.1302963538759;40.9767151801187
Ataşehir;INÖNÜ MAH. ULUSU CAD. No:36;29.131429;40.97654
Ataşehir;Inönü Mah. Vural Sok. No:6B;29.1438389;40.9739399
Ataşehir;Inönü Mah. Yurtsever Cad. A Blok Apt. No:6/A;29.1384433268887;40.9781538758534
Ataşehir;INÖNÜ MH. Kanaryam Sk. No:1;29.140345;40.975791
Ataşehir;Inönü Mh. Ulusu Cd. No : 82-84;29.13757;40.97603
Ataşehir;INÖNÜ MH. Ulusu Cd. No:1;29.138109;40.976097
Ataşehir;Karaman Çiftlik Yolu G 61 Sok. No: 46;29.1075163932547;40.9764055878289
Ataşehir;Kasr-I Ahmet Cad. Adem Sok. No: 55;29.1171373290454;40.9752764855063
Ataşehir;KAYISDAGI MAH AKYAZILI CAD NO:52;29.143;40.9825
Ataşehir;KAYIşDAğ MAH USLU CAD NO:86;29.151725;40.980222
Ataşehir;KayIşdağI AkyazIlI Cad. No.29;29.1424235133949;40.9812039616526
Ataşehir;KayIşdağI Cad. KayIşdağI Cad. 78 / A;29.120191;40.978006
Ataşehir;KayIşdağI Mah KayIşdağI Caddesi No:231;29.153268;40.975255
Ataşehir;KAYIşDAğI MAH TURNA SOKAK NO:34/A;29.1576;40.980666
Ataşehir;KayIşdağI Mah. Inkilap Cad. No: 8/A;29.1460609321766;40.9834094420839
Ataşehir;KayIşdağI Mah. Ist. Cad. No: 89;29.1488357845597;40.9857158544935
Ataşehir;KayIşdağI Mah. KayIşdağI Cad No:227 B;29.14512;40.97800
Ataşehir;KayIşdağI Mah. KayIşdağI Cad. No:48/A;29.113716;40.978754
Ataşehir;KAYIşDAğI MAH. NASIR CAD. NO:37;29.144323572914;40.9838388623108
Ataşehir;KAYIşDAğI MAH. NASIR CD 55A;29.146291;40.983348
Ataşehir;KAYIşDAğI MAH. USLU CAD. 38/A1;29.143322;40.981651
Ataşehir;KAYIşDAğI MAH. USLU CAD. NO: 89;29.150826;40.980807
Ataşehir;KayIşdağI Mah. Uslu Cad. No: 94;29.152945953876;40.9802003689075
Ataşehir;KayIşdağI Mah. Uslu Cad. No:131;29.156236;40.981797
Ataşehir;KayIşdağI Mah. Uslu Cad. No:48/A;29.2060428;40.9023026
Ataşehir;KayIşdağI Mah. Uslu Cad. No:81;29.148042;40.981210
Ataşehir;KAYIşDAğI MAHALLESI AKYAZILI CADDESI NO:39/D;29.142589;40.981489
Ataşehir;KayIşdağI Mahallesi NasIr Caddesi No23-25;29.142625;40.983887
Ataşehir;KayIşdağI mahallesi Uslu Cad No:125a/2;29.155183;40.981178
Ataşehir;KAYIşDAğI MH AKYAZILI CAD NO:2/A;29.142042;40.97853
Ataşehir;KAYIşDAğI MH. Akasya Sk. No:1;29.152672;40.980204
Ataşehir;KAYIşDAğI MH. ATILLA CD.Gülçin Sk. Dükkan:1 No:79;29.1463;40.9855
Ataşehir;KAYIşDAğI MH. NASIR CD. NO:51-53A/51;29.14609;40.983276
Ataşehir;KAYIşDAğI MH. USLU CD.Çobançeşme Sk. No:4;29.155274;40.978365
Ataşehir;KayIşdağI Yolu Cad Içerenköy No:48/1;29.1199;40.9734
Ataşehir;KayIşdağI Yolu Cad. Içerenköy Polis Karakolu KarşIsI No: 36;29.1185889538758;40.9724768885542
Ataşehir;KayIşdağI Yolu SadIkoğlu Apt. No: 88;29.1196679673696;40.9733764871189
Ataşehir;Kocasinan Cad. No: 72;29.1674144695172;40.987493346903
Ataşehir;KUCUKBAKKALKOY MAH CENGIZ TOPEL CAD NO:9/1-2;29.119007;40.982536
Ataşehir;KÜÇÜKBAKKALKÖY DUDULLU YOLU NO:23-25;29.132368;40.981858
Ataşehir;KÜÇÜKBAKKALKÖY MAH CENGIZ TOPELCADDESI  KÜÇÜKBAKKALKÖY NO:14/A;29.118045;40.979961
Ataşehir;KÜÇÜKBAKKALKÖY MAH MERDIVENKÖY YOLU CADDESI NO:51A;29.115349;40.981951
Ataşehir;küçükbakkalköy mah. Başöğretmen cad. No:13/c;29.1106949;40.9796745
Ataşehir;Küçükbakkalköy Mah. Başöğretmen Cad. No:151;29.113035;40.979054
Ataşehir;Küçükbakkalköy Mah. Başöğretmen Cad. No:2/A;29.113022;40.979355
Ataşehir;Küçükbakkalköy Mah. Cengiz Topel Cad. Halis Aktaş Apt. No:17/1;29.1179;40.9801
Ataşehir;KÜÇÜKBAKKALKÖY MAH. Cengiz Topel Cad. No:23;29.118736;40.980594
Ataşehir;Küçükbakkalköy Mah. Dilek SabancI Cad. Maritza Residence;29.120432;40.985968
Ataşehir;Küçükbakkalköy Mah. Fevzipaşa Caddesi Günel Plaza No:55;29.118777;40.978875
Ataşehir;Küçükbakkalköy Mah. Fevzipaşa Sk. No:49/C;29.1180442692177;40.9791729737709
Ataşehir;Küçükbakkalköy Mah. KayIşdağI Cad. No:10/A;29.100723;40.981315
Ataşehir;Küçükbakkalköy Mah. şehit şakir Elkovan Cad. No:1;29.118576;40.986324
Ataşehir;Küçükbakkalköy Mh Merdivenköy Yolu Cd. No : 7-3;29.107123;40.982091
Ataşehir;KÜÇÜKBAKKALKÖY MH. Başöğretmen Cd.(Atatürk Cd.) 39/A;29.11307;40.982026
Ataşehir;KÜÇÜKBAKKALKÖY MH. Katip Ahmet Sokak 4/A;29.109984;40.979545
Ataşehir;KÜÇÜKBAKKALKÖY MH. Koca Sinan Caddesi 18/1-2;29.121322;40.981532
Ataşehir;KÜÇÜKBAKKALKÖY MH. Koca Sinan Cd. No:1;29.124973;40.981079
Ataşehir;MERKEZ WATER GARDEN AVM B BLOK KAT 51.00 NO : BB: B46;29.099569;40.997354
Ataşehir;MEVLANA MAH KIBRIS CAD ZEKERIYE KIYMETLITAş APT NO:28/A;29.148571;40.986701
Ataşehir;MEVLANA MAH. MALAZGIRT CAD. NO:7/ A;29.150377;40.987403
Ataşehir;MEVLANA MAH. NAMIK KEMAL CAD. No:1;29.156724;40.982625
Ataşehir;Mevlana Mah. Sakarya Cad. 82/1;29.1549126422306;40.9864900546335
Ataşehir;MEVLANA MAH. SAKARYA CAD. No:86/A-BC;29.155448;40.986282
Ataşehir;Mevlana Mah. Ülkü Sokak No:19A;29.152273;40.98608
Ataşehir;MEVLANA MAHALLESI KUşKONMAZ SOKAK NO:19/B;29.156519;40.984978
Ataşehir;MIMAR SINAN MAH. MEHTAP CAD.Dükkan A/B/C ATAşEHIR No:34;29.161172;40.98428
Ataşehir;Mimar Sinan Mah. NamIk Kemal Cad. No:287/A;29.156994;40.983815
Ataşehir;MIMAR SINAN MH KEMAL PAşA CD NO4;29.161928;40.988875
Ataşehir;Mimar Sinan Mh. Cömert Cd. No:8/A-B-C;29.158648;40.987191
Ataşehir;Mimar Sinan Mh. Dursunbey Cd. No : 40;29.161368;40.989335
Ataşehir;Mozaik ÇarşIsI T-14 AlIşveriş Merkezi No:10;29.1357;40.9901
Ataşehir;MUSTAFA KEMAL MAH 3091 SOKAK NO:38/D;29.095016;41.001021
Ataşehir;Mustafa Kemal Mah. 3001 Cad. 3102 Sok. No: 6/A;29.09733028456;41.0065617101156
Ataşehir;Mustafa Kemal Mah. 3001 Cad. No: 103;29.0925319133955;41.002501497686
Ataşehir;Mustafa Kemal Mah. 3004 Cad. No: 14/A;29.0905582692182;40.9979998378472
Ataşehir;OPTIMUM AVM ISTIKLAL SOK. NO.10/4 YENISAHRA;29.08618033;40.98834341
Ataşehir;ÖRNEK 35.CAD NO:101;29.079998;40.995628
Ataşehir;ÖRNEK MAH Bilgili No:1;29.078582;41.001134
Ataşehir;ÖRNEK MAH ERCÜMENT BATANAY CAD NO:107/A;29.085834;40.994524
Ataşehir;Örnek mah. 35 Cad. No:16;29.0768005978613;40.99577562607418
Ataşehir;ÖRNEK MAH. AHMET YESEVI CAD.Isfahan Sok.(G-40Sk) No:2;29.082449;40.996901
Ataşehir;Örnek Mah. Ebrar Sok.. No:51/A;29.080992;40.997763
Ataşehir;ÖRNEK MAH. ERCÜMENT BATANAY SOK. (18-19) Nolu dükkan No:29 B-C;29.079094;40.992176
Ataşehir;Örnek Mah. Ercüment Batanbay Cad. No: 14F - Özel Işyeri:5;29.0850538;40.99303435
Ataşehir;ÖRNEK MAH. SEMERKAND CAD. NO: 19;29.078151;40.997213
Ataşehir;ÖRNEK MAH. şEHIT CAHAR DUDAYEV CAD. NO:46/A;29.0794312;40.9954231
Ataşehir;Örnek Mah.Niyazi SayIn Sok.Naşide Apart. No:24;29.07874133937882;40.99294698768262
Ataşehir;Örnek Mah.şehit Dudayev Cad. 54/1;29.0806234132045;40.995511924549156
Ataşehir;ÖRNEK MAHALLESI BESTEKAR AMIR ATEş CADDESI NO 18/1;29.0803861;41.0009521
Ataşehir;ÖRNEK MAHALLESI DR.SUPHI EZGI SOKAK NO:55/A;29.0819;40.993376
Ataşehir;ÖRNEK MAHALLESI KANUNI NAZIMBE Y SK NO:7/B;29.0781938838331;40.9952208298778
Ataşehir;ÖRNEK MAHALLESI SELMIYE CADDESI NO:2529/A-29/B-29/C;29.075652;40.997007
Ataşehir;Örnek Mahallesi şehit Cahar Dudayev Caddesi No:120B;29.085379;40.995711
Ataşehir;Örnek Mahallesi Yunus Emre Caddesi 56 \ 1;29.08112734018986;40.99830422154381
Ataşehir;ÖRNEK MH YUNUS EMRE CADDESI A BLOK NO:23CD:24;29.080454;40.99828
Ataşehir;ÖRNEK MH. Hümayun Sk. 22;29.074756;40.997521
Ataşehir;ÖRNEK MH. şEHIT CAHAR DUDAYEV CADDESI NO:88/A;29.08339206;40.995627935
Ataşehir;ÖRNEK MH. şehit Cahar Dudayev Cd. (G-35 Sk.) No:1;29.080381;40.995383
Ataşehir;ÖRNEK MH. UyanIk Sk. 101-103 A-B/17-18;29.085488;40.993804
Ataşehir;Örnekköy Mh. Tepetarla Cd. 13/B-1;29.144856455536896;41.14172675233224
Ataşehir;SAMANDIRA FERHATPAşA MAH. G-D SK NO:8/1;29.193893;40.982224
Ataşehir;Sonbahar Cad. Birleşik Sok. Gaye Apt. No:3/1-2/4;29.111385998053;40.9699131965114
Ataşehir;Tünelyolu caddesi Ipekçi sokakYedigöl apt No:2;29.107492;40.960684
Ataşehir;YENI ÇAMLICA MAH. ÜSKÜDAR CAD. No:23;29.167532;40.988261
Ataşehir;YENI ÇAMLICA MH PALANDÖKEN SIT BLOK2 A2;29.141225;40.993627
Ataşehir;YENI SAHRA MH. Koç Cd. No:30;29.088474;40.988993
Ataşehir;YENI SAHRA MH. YILDIRIM BEYAZIT CAD No:1;29.090456;40.99365
Ataşehir;YENISAHRA M. FATIH CAD. NO: 52;29.0905;40.9894
Ataşehir;YENIşEHIR MH. Baraj Yolu Cd. No:1;29.14093;40.993787
Ataşehir;YENI ÇAMLICA MAH. BARAJYOLU CAD. No: 22;29.1377622867187;40.9942144241553
Ataşehir;Yeni ÇamlIca Mah. Dursun Bey Cad. No: 18;29.1611555406808;40.9895943419938
Ataşehir;Yeni ÇamlIca Mah. Dursun Bey Cad. No:59/D;29.166768;40.988132
Ataşehir;Yeni ÇamlIca Mah. Dursunbey Cad. No:19/A;29.1600641;40.9892468
Ataşehir;YENI ÇAMLICA MAH. DURSUNBEY CAD. NO:23/A;29.162728;40.989032
Ataşehir;Yeni ÇamlIca Mah. Dursunbey Cad. No:59/A;29.166944;40.988076
Ataşehir;Yeni ÇamlIca Mah. Dursunbey Cad. No:68/A;29.1662276538762;40.9881856557589
Ataşehir;YENI ÇAMLICA MAH. KELEBEK SK. NO: 1;29.1492811673698;40.988766630073
Ataşehir;Yeni ÇamlIca Mah. NamIk Kemal Cad. No: 2;29.157054665634;40.983610486097
Ataşehir;Yeni Sahra Mah. Inönü Cad. No:93/1;29.095259;40.977990
Ataşehir;Yeni Sahra Mah. Karaman Cad. No:3/A1;29.077976;40.990988
Ataşehir;Yeni Sahra Mah. Koç Cad. No: 57;29.0889568002091;40.9868350549509
Ataşehir;YENI SAHRA MAHALLESI FATIH CADDESI NO:53;29.090293;40.990177
Ataşehir;YENI SAHRA MH FATIH CD NO:70/A;29.090544;40.990492
Ataşehir;Yeni Sahra Yavuzlar No:32/B;29.088328;40.9867378
Ataşehir;YENISAHRA MAH. FATIH CAD. NO:62-64/A;29.090482;40.990262
Ataşehir;Yenisahra Mah. Istiklal Sok. No.2b/115;29.08618033;40.98834341
Ataşehir;Yenişehir Mah. Baraj Yolu Cad. No:1/1;29.1453087;40.9934708
Ataşehir;Yenişehir Mah. Neşeli Sok No:1A;29.14257109;40.99376317
Ataşehir;YENIşEHIR MH BARAJYOLU CD. NO :20A;29.141222;40.993871
Avcilar;AmbarlI Fevzi Çakmak No:48/3;28.709194;40.977760
Avcilar;AMBARLI MAH BALABAN CAD NO:6/A/D1;28.715761;40.978324
Avcilar;AMBARLI MAH CUMHURIYET CAD NO:58;28.7149;40.9745
Avcilar;AMBARLI MAH DR SADIK AHMET CAD  ÖğRETMENLER CAD  TAMBULUT APT NO:1;28.718871;40.972246
Avcilar;AMBARLI MAH FEVZI ÇAKMAK CAD NO: 56;28.7085;40.9784
Avcilar;AmbarlI Mah Hikmet Sok No2/3;28.718653;40.978205
Avcilar;AmbarlI Mah. Cumhuriyet Cad. No :1/A;28.7189417;40.9786369
Avcilar;AmbarlI Mah. Cumhuriyet Cad. No:61/B;28.714355;40.974349
Avcilar;AMBARLI MAH. FEVZI ÇAKMAK CAD.Hindi Sok No:9;28.705633;40.979568
Avcilar;AmbarlI Mah. Fevzi Çakmak Cad. 22/B;28.711378556293500;40.975641287863100
Avcilar;AmbarlI Mah. Fevzi Çakmak Cad. Armağan Sit. No:1-2;28.708800211473500;40.97794017726540
Avcilar;AmbarlI Mah.Cumhuriyet Cad.Akengin Apt.Dükkan:1/2 56/1;28.716132682637800;40.97461718643160
Avcilar;AMBARLI MAHALLESI ÖZLEM SOKAK NO:2A;28.422080;40.584840
Avcilar;AMBARLI MH. Cumhuriyet Cd. No:1;28.716152;40.974417
Avcilar;AMBARLI MH. Korkmaz Sokak 50/A-B-C;28.720573;40.976371
Avcilar;AMBARLI MH. Öğretmenler Cd. No:1;28.71868;40.972284
Avcilar;AMBARLI MH. şehit Acarkan Sokak 26;28.711009;40.975685
Avcilar;AVCILAR AVCILAR AVCILAR;28.7068;40.995708
Avcilar;AVCILAR AVCILAR AVCILAR;28.709289;41.010774
Avcilar;BalIkyolu Mah. 513. Sok. No:2A/1;28.690522;41.040941
Avcilar;Belediye cad. FIrIn sok. ;28.719018526816400;40.97957166968000
Avcilar;CIHANGIR MAH KIRAZLI CAD NO:10/A;28.71;40.9827
Avcilar;CIHANGIR MAH ORMANLI CAD NO:31;28.7127;40.9845
Avcilar;CIHANGIR MAH. ORMAN CAD. NO:47;28.7124;40.9863
Avcilar;CIHANGIR MAH. SarIasma Sok. No:13;28.7098;40.9896
Avcilar;CIHANGIR MAH. ÜZENGI SOK. NO:30;28.708753;40.986966
Avcilar;CIHANGIR MH. 44/A 44/B 44/C  Yuva Sokak NO:2;28.705301;40.989783
Avcilar;CIHANGIR MH. Cevat şakir Sk.(Mürvet Sk.) 58;28.703947;40.989501
Avcilar;CIHANGIR MH. FIndIk Sk. 7;28.706323;40.990101
Avcilar;CIHANGIR MH. Iğde Sk. No:1;28.712206;40.98765
Avcilar;CIHANGIR MH. KirazlI Cd. No:1;28.709636;40.986224
Avcilar;CIHANGIR MH. OrmanlI Caddesi 21A;28.712919;40.983628
Avcilar;CIHANGIR MH. Osmanpaşa Cd. No:1;28.701847;40.985869
Avcilar;CIHANGIR MH. Reşit Paşa Cd. 103;28.714734;40.981266
Avcilar;Cihangir I.G.S YanI Gürel Apt No:195;28.717290;40.988491
Avcilar;Cihangir Mah OrmanlI Cad. No:45/D;28.712491;40.985784
Avcilar;CIHANGIR MAH OSMANPAşA CAD NO:18/1;28.705138;40.983893
Avcilar;CIHANGIR MAH REşITPAşA CAD NO:134 AMBARLI;28.7104;40.9811
Avcilar;CIHANGIR MAH TALATPAşA CAD NO:26-A;28.71309;40.988696
Avcilar;Cihangir Mah. Civa Cad No:34A;28.708892498211906;40.990250743307655
Avcilar;CIHANGIR MAH. MEşRUTIYET CD. NO:33/A;28.706441;40.990934
Avcilar;CIHANGIR MAH. ORMANLI CAD. NO:45/C;28.7125;40.9859
Avcilar;Cihangir Mah. Özengi Sok. No:19/2;28.529894;41.030715
Avcilar;Cihangir Mah. şükran Sok. No:3/A;28.661144;41.032206
Avcilar;Cihangir Mah. Talatpaşa Cad. Eylem Apt. No:42 / A;28.711286511183300;40.98991953619110
Avcilar;Cihangir Mah.KirazlI Cad. 17 A-B;28.709652326816500;40.983331361225900
Avcilar;Cihangir Mah.Meşrutiyet Cad.Kelebek Sk. 2;28.704972840309600;40.989742343115800
Avcilar;Cihangir Mah.OrmanlI Cad. Dükkan:1-2 30/A;28.712962913323700;40.98448435705340
Avcilar;Cihangir Mah.Osmanpaşa Cad.AvcIlarpark Evl.Dükkan E Bl.5c-5e 5;28.707502040309400;40.98221976182170
Avcilar;Cihangir Mahallesi Çapraz Sokak No:16B;28.714132;40.984932
Avcilar;CIHANGIR MAHALLESI KIRAZLI CADDESI No:44/A- B;28.709692;40.985422
Avcilar;CIHANGIR MAHALLESI MEşRUTIYET CADDESI NO:51/A;28.704853;40.989448
Avcilar;CIHANGIR MAHALLESI OSMANPAşA CD NO:68/B;28.701624;40.986029
Avcilar;CIHANGIR MAHALLESI SARIASMA SOKAK NO:7/;28.709962;40.989894
Avcilar;CIHANGIR MAHALLESI TALATPAşA CADDESI NO:32/A;28.712583;40.989007
Avcilar;CIHANGIR MH. BURNAZ CD NO: 12A;28.71805;40.98620
Avcilar;Cihangir Mh. DarIlmaz sok. No:2-B;28.709338;40.990683
Avcilar;CIHANGIR MH. MEşRUTIYET CD. NO  21/A;28.7076630819855;40.9925369409452
Avcilar;CIHANGIR MH. NAMIK KEMAL CD N O:73A;28.7157295396561;40.9843970510088
Avcilar;Cihangir Mh. Oruç Sk. 2/A;28.701744355652300;40.98647814770090
Avcilar;Cihangir Mh. Osman Paşa Caddesi No:5-3A;28.706867;40.982704
Avcilar;Cihangir Mh.Kalem Sk. 4a;28.712089340309400;40.98644864895260
Avcilar;Cihangir şükran No:1/5;28.713123;40.990509
Avcilar;CIHANGIR  MAHALLESI FIRAT SOKAK NO:5/1A;28.7118591;40.9863750
Avcilar;DENIZKOSKLER MAH DENIZKOSKLER CAD NO:23/1;28.7256;40.9773
Avcilar;DENIZKÖşKLER MAH. DR SADIK AHMET Cad. No:32;28.742444;40.976107
Avcilar;DENIZKÖşKLER MH. DENIZKÖşKLER CD. No:65;28.73153;40.975965
Avcilar;DENIZKÖşKLER MH. Iyibaş Sk.(şehit Komando Murat Avuç No:1;28.723985;40.974953
Avcilar;DENIZKÖşKLER MH. Kahraman Sokak No:1;28.735516;40.9753
Avcilar;Deniz köşkler Derya No:2;28.733432;40.978816
Avcilar;Deniz Köşkler Mah. Reşitpaşa Cad. No:17/2;28.727566;40.978861
Avcilar;DENIZ KÖşKLER MAHALLESI ÇIMEN SOKAK NO:12/A;28.72506;40.97860
Avcilar;Deniz Köşler Dr.SadIk Ahmet No:4-C Huzur Apt.;28.744949;40.977936
Avcilar;DENIZKÖşKLER  MAHALLESI DR SADIK AHMET CADDESI NO:130/A;28.732528;40.973687
Avcilar;Denizköşkler Eski Londra AsfaltI No:22/3;28.740550;40.976463
Avcilar;DENIZKÖşKLER MAH DENIZKÖşKLER CAD  NAZIR SK NO:1/6-7;28.723235;40.977533
Avcilar;DENIZKÖşKLER MAH DENIZKÖşKLER CAD NO:16/A;28.72332;40.977553
Avcilar;DENIZKÖşKLER MAH DERYA CAD NO:22/B;28.732364;40.977887
Avcilar;Denizköşkler Mah. Adalet Sok. No:1;28.727869370994800;40.97894387222210
Avcilar;DENIZKÖşKLER MAH. DENIZKÖşKLER CAD NO:20;28.7241;40.9774
Avcilar;Denizköşkler Mah. Dilaver Sok. 1A;28.73969977099480;40.97660058028950
Avcilar;Denizköşkler Mah. Dr. SadIk Ahmet Cad. Haluk Sk. Sevgi Apt. No: 2/A;28.728890797980500;40.97377299023120
Avcilar;Denizköşkler Mah. şehit Kom. Er Murat Avu. Sok. 14/A-B;28.724708396130700;40.97734067818620
Avcilar;Denizköşkler Mah. Zafer Cad. AkIncIer Sitesi D Blok Dükkan 1 ;28.723125269144800;40.97616298116010
Avcilar;DENIZKÖşKLER MAHALLESI DENIZKÖşKLER CADDESI NO69/A;28.732075;40.975931
Avcilar;Denizköşkler Mert No:1;28.721248;40.978023
Avcilar;DENIZKÖşKLER MH ZAFER CDRÜZGARLI SK NO:37;28.721349;40.974801
Avcilar;Denizköşkler Mh.Denizköşkler Cd. 67/A;28.731920855652000;40.97620168167120
Avcilar;DENIZKÖşLER MAH MURAT SOK NO:3A;28.729412;40.975565
Avcilar;Derya Sok Doğru Apt No:16/A;28.7326;40.9782
Avcilar;Fevzi Çakmak Siteler Otobüs DurağI YanI;28.708490;40.977718
Avcilar;FIRUZKÖY MH. Hasan Önel Caddesi No:13/14;28.70322;41.01634
Avcilar;FIRUZKÖY MH. Pehlivan Cd. 68;28.703808;41.013358
Avcilar;FIRUZKÖY MAH ÇAVUş CAD NO:54/A;28.703809;41.024156
Avcilar;FIRUZKÖY MAH HASAN ÖNEL CAD NO:98/A/2;28.707806;41.013676
Avcilar;FIRUZKÖY MAH PLEVNE CAD NO:57/A;28.705301;41.019906
Avcilar;Firuzköy Mah. Çavuş Cad. Dükkan 1 No:38/A;28.703606540310500;41.02183234142340
Avcilar;Firuzköy Mah. Çavuş Cad. No:23/1;28.703139;41.018475
Avcilar;Firuzköy Mah. Hasan Önel Cad. No:70/A;28.70953466729610;41.0109817622571
Avcilar;Firuzköy Mah. Hasan Önel Cad. No:90 A-B;28.7084803538033;41.01322375010180
Avcilar;FIRUZKÖY MAHALLESI ÇAVUş CADDESI NO56A/0;28.703831;41.024261
Avcilar;firuzköy Mh. Kadir özdemir cad. No:1;28.709078;41.012636
Avcilar;Firuzköy Mh. Kadir Özdemir Caddesi No: 1;28.70674;41.022088
Avcilar;FIRUZKÖYKÖY MAH POYRAZ CAD NO:162/A;28.704083;41.017833
Avcilar;Firüzköy  Mahallesi Hasan Önal Caddesi No:82;28.709093;41.011817
Avcilar;GÜMÜş PALA MAHALLESI MANOLYA SOKAK NO:27A;28.732523;40.982227
Avcilar;Gümüşpala E5 Yan Yol HacI şerif Üst Geçidi;28.740734;40.977344
Avcilar;Gümüşpala Mah Hanedan Sok No:2;28.740854;40.981593
Avcilar;GÜMÜşPALA MAH KURUÇEşME CADDESI OCAK SOKAK NO:1;28.737311;40.981842
Avcilar;Gümüşpala Mah şükrübey Cad No:6/1;28.734956;40.9794
Avcilar;Gümüşpala Mah, E-5 Yanyol (londra AsfaltI) Cad No: 82 A;28.70395722292380;40.99648746484000
Avcilar;Gümüşpala Mah. Gümüşpala cad. No:28;28.741751;40.979688
Avcilar;Gümüşpala Mah. HacI şerif Sok. No:36;28.739630726816400;40.97992917119290
Avcilar;GÜMÜşPALA MAH. KARAYOLLARI CAD. No:23/A-B;28.746016;40.980584
Avcilar;Gümüşpala Mah. Kuruçeşme Cad. No:70 / B;28.741502790282400;40.982342414858200
Avcilar;Gümüşpala Mah. Kutlu Sok. No:6;28.7348316268164;40.981651963704300
Avcilar;GÜMÜşPALA MAH. şÜKRÜBEY CAD NO:16/A;28.733987;40.980776
Avcilar;Gümüşpala Mah. şükrübey Cad. No:42/4;28.734794;40.980892
Avcilar;Gümüşpala Mah.Mutlu Sk. No:19 A-C 21-A-C;28.733653184487800;40.982085065991200
Avcilar;GÜMÜşPALA MH. Çapari Sokak 72;28.741602;40.981978
Avcilar;GÜMÜşPALA MH. Gümüşpala Cd. No:1;28.738794;40.979983
Avcilar;GÜMÜşPALA MH. Gümüşpala Cd. No:34/A-B;28.740757;40.979717
Avcilar;GÜMÜşPALA MH. Mutlu Sokak 1;28.733257;40.982455
Avcilar;Gümüşpala şükrübey No:5-2;28.734725;40.979244
Avcilar;KOCATAş MAH KILIÇPINAR CAD NO:3A/1;28.70697498;40.9825142
Avcilar;M.KEMAL PAşA MAH. ISTIKLAL CAD. NO:83/A;28.704839;41.001239
Avcilar;Merkaz Mah. NamIk Kemal Cad. No:59/C;28.717775;40.983933
Avcilar;Merkez AvcIlar Metrobüs DurağI Insa Lisesi Üst Geçit AltI;28.724731;40.983760
Avcilar;MERKEZ BEYOğLU CAD. 51;28.704952;41.003959
Avcilar;Merkez E5 Yan Yol Bankamatikler YanI;28.723648;40.984573
Avcilar;Merkez Kemal/ Belediye Büfesi No:12/A;28.722879;40.982875
Avcilar;MERKEZ MAH CIGDEM CAD NO:2/A;28.72726321;40.98099556
Avcilar;MERKEZ MAH CIGDEM CAD NO:76/A-B;28.71655852;40.98299003
Avcilar;Merkez Mah Çiğdem Cad No:52/C C/24;28.71945552540550;40.98266166381300
Avcilar;Merkez Mah Çiğdem Cad No:59/1-2;28.719482;40.982379
Avcilar;MERKEZ MAH FIRIN SK No:21/B;28.719492;40.980697
Avcilar;MERKEZ MAH GÜLISTAN SOK NO:7 D:11;29.069224;41.021575
Avcilar;MERKEZ MAH NAMIK KEMAL CAD BOZAN 2 APT NO:37/A;28.720332;40.983195
Avcilar;Merkez Mah Talimhane Sok, No:37/A/0/31;28.72432108307560;40.98218906572540
Avcilar;Merkez MAH. Ahmet Taaner KIşlalI cad. No:27/B;28.720104;40.979165
Avcilar;Merkez Mah. Ahmet Taner KIşlalI Cad. YazIcIgil Apart. 8/A;28.723578997807400;40.97874627417680
Avcilar;Merkez Mah. Anadol Sok. No1-2;28.7176;40.9839
Avcilar;MERKEZ MAH. ÇIğDEM CAD.KaranfIl Ap. No:45/1;28.7215;40.982
Avcilar;Merkez mah. Çiğdem sok. No:21;28.719288;40.982551
Avcilar;Merkez Mah. FIrIn Sok. 45/A;28.720296982637900;40.98311256409140
Avcilar;MERKEZ MAH. MARMARA CAD. NO:5/C;28.721702;40.980092
Avcilar;MERKEZ MAH. NAMIK KEMAL CAD. STADYUM KARSISI NO:23;28.72234;40.982838
Avcilar;MERKEZ MAH. NAMIK KEMAL CAD.Samet sk. No:13/2-3;28.7243;40.9824
Avcilar;MERKEZ MAH. NAMIK KEMAL CAD.YeşIl Sk. No:1;28.7165;40.9841
Avcilar;Merkez Mah. Reşitpaşa Cad. No:83/1;28.717148;40.980706
Avcilar;MERKEZ MAH. şAMLI SOK. NO:25/A;28.721737;40.980865
Avcilar;Merkez Mah.Harmanyeri Sok. 24a;28.717101969144900;40.97919257318300
Avcilar;MERKEZ MAHALLESI MARMARA CAD NO:2E;28.721425;40.978346
Avcilar;MERKEZ MAHALLESI MENEKşE SOKAK NO27/B/2;28.718573;40.981413
Avcilar;MERKEZ MH. Ahmet Taner KIşlalI Caddesi 13;28.723132;40.97864
Avcilar;MERKEZ MH. PInar Sk. No:1;28.717064;40.979656
Avcilar;MERKEZ MH. REşITPAşA CD.Kasapoğlu Sk.1. Dük. No:22/7;28.7243;40.9795
Avcilar;MERKEZ MH. Uftade Sk. No:1;28.728663;40.980109
Avcilar;MERKEZ REşITPAşA NO:51;28.722931;40.979619
Avcilar;Merkez şamlI Sok. Merkez şamlI Sok. No:35/E;28.720064;40.981187
Avcilar;MUSTAFA K.PAşA MH. MEKTEP SK. No:122/1-2;28.7059;41.0019
Avcilar;Mustafa Kemal Paşa Beyoğlu No:33/B;28.703256;41.002300
Avcilar;Mustafa Kemal Paşa Istiklal No:70;28.707361;40.999797
Avcilar;MUSTAFA KEMAL PAşA MAH FIDAN SOKAK NO:105/A /4;28.701672;41.000836
Avcilar;MUSTAFA KEMAL PAşA MAH ISTIKLAL CAD NO:107;28.703386;41.002051
Avcilar;Mustafa Kemal Paşa Mah Orhangazi Cad No:43A/B;28.70789;41.000537
Avcilar;Mustafa Kemal Paşa Mah. Beyoğlu Cad. No:54;28.703256;41.002300
Avcilar;Mustafa Kemal Paşa Mah. Beyoğlu Cad. No:64;28.70616;41.004889
Avcilar;Mustafa Kemal Paşa Mah. Beyoğlu Cda. No.33/A;28.7032879;41.0041903
Avcilar;Mustafa Kemal Paşa Mah. Istiklal Cad. No:124/B;28.703791;41.001848
Avcilar;Mustafa Kemal Paşa Mah. Istiklal Cad. No:150/A;28.702463653802800;41.003002312034200
Avcilar;Mustafa Kemal Paşa Mah. Maraşal Cad. No:27/B;28.708412;40.998028
Avcilar;Mustafa Kemal Paşa Mah. YIldIrIm BayazIt Cad. 44A;28.70293104031000;41.00507438258100
Avcilar;MUSTAFA KEMAL PAşA MAH.HILAL SOK NO:40/B;28.70623662681680;40.99631512691580
Avcilar;MUSTAFA KEMAL PAşA MAHALLESI KANARYA SOKAK NO:108;28.703096;41.001827
Avcilar;Mustafa Kemal Paşa Mareşal No:5;28.706787;40.996082
Avcilar;Mustafa Kemal Paşa Mh.Mektep Sokak 128-130;28.705379655747400;41.002456018526500
Avcilar;Mustafa Kemal Paşa YIldIrIm BeyazIt Cad No:17/D;28.630591;41.069233
Avcilar;Mustafa Kemal YIldIrm BeyazIt No:17;28.699348;41.001544
Avcilar;MUSTAFA KEMALPAşA MAH ISTIKLAL CAD NO:144 A;28.702664;41.002645
Avcilar;MUSTAFA KEMALPAşA MAH ISTIKLAL CAD NO:57/1;28.70708;40.999938
Avcilar;MUSTAFA KEMALPAşA MH YIldIrIm BeyazIt Caddesi NO:17/D;28.700584;41.002923
Avcilar;Mustafa Kemalpaşa Mh. mimar sinan cd. No:3;28.705703;41.001534
Avcilar;PARSELLER MUSTAFA KEMAL PASA MAH.MARASEL CAD. NO:9;28.706877;40.996452
Avcilar;PELICAN AVM AVCILAR PELICAN AVM AVCILAR PELICAN AVM AVCILAR;28.71464277;40.9909439
Avcilar;Tahta Kale Abdi Ipekçi No:26 A Blok. K:5;28.714662;41.060517
Avcilar;Tahtakale Abdi ipekçi A Blok 5/K No:26;28.714766;41.060101
Avcilar;Tahtakale Gaffar Okan No:10;28.728408;41.056846
Avcilar;TAHTAKALE MAH ESKI ISTANBUL CAD NO:47/H;28.727087;41.070306
Avcilar;Tahtakale Mah Ispartakule BulvarI No: 2 / G;28.709616384490300;41.06269526845990
Avcilar;Tahtakale Mah Ispartakule bulvarI No:1-2;28.70936;41.077638
Avcilar;Tahtakale Mah. Abdi Ipekçi Cad. 2 / 1f-1g;28.714737697983000;41.06036226395490
Avcilar;Tahtakale Mah. Abdi Ipekçi Cad. No:5/85;28.712364;41.0603022
Avcilar;Tahtakale Mah. Ahmet Hamdi TanpInar Cad. No:4/11A;28.718159;41.057495
Avcilar;Tahtakale Mah. Bayrak Sok. 77;28.72775638019210;41.06448759832920
Avcilar;Tahtakale Mah. Eski Istanbul Cad. No: 51/A;28.72641059613340;41.0711399361126
Avcilar;Tahtakale Mah. Eski Istanbul Cad. No:43/B;28.727794;41.068996
Avcilar;Tahtakale Mah. Ispartakule BulvarI No:12f;28.71112632797980;41.06502076251970
Avcilar;Tahtakale mah. Istanbul cad. No:55/A;28.726182;41.071234
Avcilar;Tahtakale Mah. Okul Yolu Cad. No:11/A;28.725534;41.0585424
Avcilar;Tahtakale Mah. Pazar Cad. No:17/1-A;28.728024;41.060274
Avcilar;Tahtakale Mah. Yoluç Cad. 39 / A;28.726180913325800;41.06292485733550
Avcilar;Tahtakale Mah.Ispartakule Blv.2h Dükkan:8 2;28.709616384490300;41.06269526845990
Avcilar;Tahtakale Mah.Istanbul Cad. 58/A;28.735624284490300;41.061720581270300
Avcilar;TAHTAKALE MAHALLESI AHMET HAMDI TANPINAR CADDESI NO:2-H/7;28.716993;41.057715
Avcilar;TAHTAKALE MAHALLESI DOğA (KIRAZ) SOKAK NO:8/A;28.722672;41.055466
Avcilar;TAHTAKALE MAHALLESI ESKI ISTANBUL CADDESI NO:59/C;28.725565;41.071738
Avcilar;TAHTAKALE MAHALLESI ISPARTAKULE BULVARI, NO:6/J;28.709885;41.063348
Avcilar;Tahtakale Mh Ayçiçeği Sk No:2/2I-2H-2G-2F-2E;28.708008;41.062357
Avcilar;TAHTAKALE MH. Ahmet Hamdi TanpInar Caddesi 33;28.714745;41.057831
Avcilar;TAHTAKALE MH. Istanbul Cd.(O -3 Kuzey BağlantIsI) No:1;28.731051;41.058875
Avcilar;TAHTAKALE MH. Karadağ Sk. (G-7. Sk.) No:1;28.72129;41.056182
Avcilar;TAHTAKALE MH. TAHTAKALE MH. No:1;28.713999;41.064103
Avcilar;ÜNIVERSITE MAH ÇINAR SK NO:19/1;28.7111;40.9942
Avcilar;ÜNIVERSITE MH. Uran Cd. No:29/A;28.710925;40.99688
Avcilar;Üniversite D100 Karayolu Pelikan Avm Geçit AltI;28.713613;40.990875
Avcilar;Üniversite E-5 Yolu Metrobüs DurağI Üst Geçit AyağI;28.87457;40.98109
Avcilar;Üniversite Mah Mahir Sok. No:29/A ve 29/B;28.708568111720172;40.99793821482485
Avcilar;Üniversite Mah. Çavuş 1 Sokak. 19 A;28.69958654045810;41.01007454917090
Avcilar;Üniversite Mah. Ist. Üniv. AvcIlar Kampüsü Entertech BinasI No:322;28.770951;41.018978
Avcilar;Üniversite Mah. Maraşal Cad. No:38/1;28.706441;40.995771
Avcilar;Üniversite Mah. Mareşal Cad. No:14/A;28.708936;40.998658
Avcilar;Üniversite Mah. Selvi Sok. No:25;28.71453077;40.99101589
Avcilar;Üniversite Mah.Uran Cad. 25A;28.710157453802700;40.996945522764900
Avcilar;ÜNIVERSITE MAHALLESI NERGIS SOKAK NO27A-27B;28.708501;40.99747
Avcilar;ÜNIVERSITE MAHALLESI URAN CADDESI CAMI SOKAK NO:2/AB4B;28.712331;40.997674
Avcilar;Üniversite Mahallesi Zakkum Sokak No:16A;28.712677;40.99547
Avcilar;Üniversite Selvi AvcI Apt No:61/1;28.711112;40.994510
Avcilar;YEşILKENT G-678 No:1;28.70613;41.026728
Avcilar;YEşILKENT MAH. BalIkyolu Cd. No:30;28.6993;41.0315
Avcilar;YEşILKENT MAH. BIRLIK CAD.  Firüzköy NO:41;28.699108;41.039975
Avcilar;YEşILKENT MH. 698. Sk. No:1;28.707598;41.030234
Avcilar;YEşILKENT MH. Birlik Caddesi 2;28.699811;41.039732
Avcilar;YEşILKENT MH. Fatih Cd. 59;28.704207;41.035862
Avcilar;Yeşilkent BalIklI Yolu No:47/B;28.6886477;41.0327593
Avcilar;Yeşilkent Birlik No:63/C;28.697268;41.041254
Avcilar;Yeşilkent Fatih No:19/A;28.7062;41.03368
Avcilar;Yeşilkent Fatih1 cad. No:21/B;28.662444;41.025572
Avcilar;Yeşilkent mah. 825 sokak No:3A-3B;28.700472;41.035503
Avcilar;Yeşilkent Mah. Ahmet Arif Cad. 34/A–b;28.698849101953900;41.033689972004800
Avcilar;Yeşilkent Mah. Atatütk Cad. No:99/D;28.702;41.037958
Avcilar;Yeşilkent Mah. Atilla Ilhan Cad. No:30/B;28.69940276041650;41.03687300444070
Avcilar;Yeşilkent Mah. BalçIbük Cad No:100D;28.704669595817645;41.02471142672385
Avcilar;Yeşilkent Mah. BalIkyolu Cad 72 A/1;28.69535343816850;41.03187603067770
Avcilar;Yeşilkent Mah. BalIkyolu Cad No:6A-6B-6C-6E;28.701805;41.031454
Avcilar;Yeşilkent Mah. BalIkyolu Cad. No:30/B;28.699345;41.031744
Avcilar;Yeşilkent Mah. BalIkyolu Cad. No:45;28.698265;41.031367
Avcilar;Yeşilkent Mah. Birlik Cad. No:40/2;28.699046;41.040218
Avcilar;YEşILKENT MAH. BIRLIK CAD. NO:9;28.701535;41.038327
Avcilar;Yeşilkent Mah. Fatih 1 Cad. 43/1a;28.7051603689738;41.035150764808700
Avcilar;YEşILKENT MAH. FATIH CAD NO:57;28.704333;41.035709
Avcilar;Yeşilkent Mah. G14 Cad. No:35;28.711054;41.023277
Avcilar;Yeşilkent Mah. G-527.sokak No:17/B;28.69557;41.043006
Avcilar;Yeşilkent Mah. Ozanlar Cad. 50/A;28.69077625380390;41.03573522033750
Avcilar;YEşILKENT MAH. OZANLAR CAD. NO:4;28.6911;41.032
Avcilar;Yeşilkent Mah.Atatürk Cad. No:1/A-B-C;28.702194026817900;41.03165325152020
Avcilar;YEşILKENT MAH.BALIKYOLU CAD. NO:96;28.691509065446700;41.03232136982050
Avcilar;YEşILKENT MAHALLESI BALIKYOLU CD 8/1;28.701849;41.031393
Avcilar;YEşILKENT MAHALLESI BIRLIK CADDESI NO:26A;28.700096;41.039471
Avcilar;YEşILKENT MAHALLESI FATIH CADDESI NO:67;28.703802;41.036122
Avcilar;Yeşilkent Mh. Atatürk Caddesi No:142;28.702056;41.04046
Avcilar;Yeşilkent Mh. Fatih Caddesi No:41-43/A;28.705395;41.034902
Avcilar;YEşILKENT MAHALLESI BAHÇEşEHIR YAN YOL CADDESI NO:18/1A-1B;28.685598;41.054755
Avcilar;Yeşillkent Mah. Birlik Cad. No: 9 / A;28.701584997982400;41.03853907496980
Avcilar;YILDIRIM BEYAZIT CAD. No:52 No:52;28.7036;41.0055
Avcilar;AmbarlI Mah. Balaban Cad. No:6/A/D1;28.715761;40.978324
Avcilar;AmbarlI Mah. Fevzi Çakmak Cad. No:50;28.709050;40.977965
Avcilar;AmbarlI Mah.RüzgarlI Sok.No:37/A;28.719125;40.974763
Avcilar;Cihangir Mah. E-5Karayolu Üzeri Beyaz Cent. No:291/1N;28.705811;40.99379
Avcilar;Cihangir Mah. Osmanpaşa Cad. No:18/1;28.705118;40.983923
Avcilar;Firuzköy Mah. Çavuş Cad.No:54;28.703556;41.023094
Avcilar;Firuzköy Mah. Hasan Önel Cad. No:98/A2;28.70543;41.01376
Avcilar;Firuzköy Mah.Plevne Cad.No:57/A;28.703098;41.020073
Avcilar;Gümüş Pala Mah. Gümüş Pala Cad. No:22/2;28.742471;40.97972
Avcilar;Gümüşpala Mah. Hanedan Sok. No:2;28.740823;40.981559
Avcilar;Gümüşpala Mah. Ocak Sok. No:1/A;28.737387;40.981815
Avcilar;Gümüşpala Mah. şükrübey Cad. No:6/1;28.735025;40.979478
Avcilar;HacI şerif Mah. Derya Sok. Doğru Apt.No:16/A;28.73266;40.978272
Avcilar;Istanbul Üniversitesi AvcIlar Kampüsü Işletme Fak. KarşIsI;28.727374;40.986968
Avcilar;Merkez Mah. NamIk Kemal Cad. Bozan 2 Apt. No:37/a;28.72015;40.98326
Avcilar;Merkez Mah.Menekşe Sok.No:27/B;28.716416;40.981393
Avcilar;Mustafa Kemal Paşa Mah. Fidan Sok. No:105A/4;28.701672;41.000836
Avcilar;Tahtakale Mah. Doğa Sok. No:8A/D1;28.720506;41.055497
Avcilar;Tahtakale Mah. Hayat Sok. No:40/B;28.732184;41.060827
Avcilar;Tahtakale Mah. Trafo Mevkii Istanbul Cad. No:37/A;28.7258475;41.058095
Avcilar;Üniversite Mah. Mareşal Cad. No:4/1;28.706726;40.996006
Avcilar;Yeşilkent Mah. BalIkyolu Cad. No:14/A;28.701467;41.031375
Avcilar;Yeşilkent Mah.AmasyalIlar Cad. No:53/B;28.696446;41.041682
Avcilar;Yeşilkent Mah.Fatih Cad. No:67/A;28.703777;41.036123
Bagcilar;15 Temmuz Mah. Fevzi Çakmak Cad. No:63/A;28.824221;41.038086
Bagcilar;Barbaros Mah 220. Sok No:89/C;28.840681;41.028289
Bagcilar;ÇInar Mah.802.Sokak No:72/B;28.867488;41.050884
Bagcilar;DemIrkapI Mah. Tufan Sok. No:32/A;28.82994;41.04763
Bagcilar;DemirkapI Mah. Velioğlu Cad.No:91;28.847253;41.043537
Bagcilar;Evren Mah. Istiklal Cad.  Hünkar Sok.No:117/C;28.844711;41.052751
Bagcilar;Gunestepe mah.şehit özcan canik sok.no:21 ;28.86303;41.0295
Bagcilar;Günesli Mah. Cumhuriyet Cad. Günesli Meydani No:40;28.82833;41.031449
Bagcilar;Güneşli Mah. Evren Cad. No:118/C;28.82864;41.041889
Bagcilar;Güneşli Mah. Evren Cad. No:147;28.828868;41.043888
Bagcilar;Hürriyet Mah. Cumhuriyet Cad. No.33/1;28.829687;41.030927
Bagcilar;Hürriyet mah.gaziosmanpaşa cad.3.sok no:35/B ;28.83661;41.03286
Bagcilar;Merkez Mah. 2.Sok. Cad. No:8/5-6;28.820568;41.059935
Bagcilar;Oruç reis Mah. Barbaros Cad. No: 92 ;28.855094;41.057514
Bagcilar;SoğanlI Mah. Misket Sok. No:95/A;28.851217;41.007125
Bagcilar;Yenigün Mah BağcIlar Cad No:85/B;28.857263;41.027034
Bagcilar;Yenigün Mah. BağcIlar Cad. 8.Sok. No.6/A;28.858347;41.021528
Bagcilar;YIldIztepe Mah. şehit Kaan YIlmaz Cad. No:19/B;28.854525;41.029234
Bagcilar;Yildiztepe Mah.584 .Sok No:13/A ;28.853009;41.024661
Bagcilar;YüzyIl Mah. Barbaros Cad.2137.Sok. No:1;28.855094;41.057514
Bağcilar;100 YIL Barboros No:1-B;28.854749;41.060314
Bağcilar;100 YIl Mah. Barbaros Cad. 2172 Sok. No:24A26AB;28.853634025422842;41.06304915485906
Bağcilar;100 YIL MAHALLESI KIşLA CADDESI NO:33/A;28.852179;41.058159
Bağcilar;100 YIL MAHALLESI 2213 SOK NO:2\A;28.855816;41.070369
Bağcilar;100 YIL MatbaacIlar No:54/A;28.851146;41.056068
Bağcilar;100. YIl Mah. Barbaros Cad. 2187. Sok. No: 2-B;28.855802297207717;41.06496180415543
Bağcilar;100. YIl Mah. Barbaros Cad. No:125/B;28.85559;41.063957
Bağcilar;100. YIL MH. 7. Sokak No:1;28.854577;41.057206
Bağcilar;100. YIL MH. Fetih Cd. 63/65;28.857747;41.068392
Bağcilar;100.YIL MAH MUSTAFA KEMAL CAD. .NO:10/A;28.854863;41.067762
Bağcilar;100.YIL MAH. KIşla Cad NO:91/1;28.852909;41.063923
Bağcilar;100.YIl Mah. Mustafa Kemal Cad. No:21/10;28.8545041273473;41.06874434183768
Bağcilar;100.YIl Mh. Mustafa Kemal Cad. No:5/A;28.8523793;41.0674027
Bağcilar;15 TEMMUZ  MAHALLES GÜLBAHAR   SOKAK NO:34/A;28.814655;41.03285
Bağcilar;15 Temmuz Cami Yolu No:70/C;28.816612;41.039901
Bağcilar;15 Temmuz Mah Fevzi Çakmak Cad. No:43/B;28.822866;41.035572
Bağcilar;15 Temmuz Mah. 1450 Sok. No:16A-B;28.81749449104001;41.041239454892015
Bağcilar;15 Temmuz Mah. 1494. Sok. No:6/A;28.81961848064109;41.033212598787784
Bağcilar;15 Temmuz Mah. Gülbahar Cad. 62b–62c;28.814158033900927;41.0359801130878
Bağcilar;15 Temmuz Mah. Istiklal Cad. Albay Apt. No:182B;28.819598;41.043606
Bağcilar;15 Temmuz Mah. Istiklal Cad. No:184/B;28.819581;41.043738
Bağcilar;15 Temmuz Mah. Istiklal Cad. No:57/1-A;28.8194939321658;41.03714498782125
Bağcilar;15 Temmuz Mah. Istiklal Cad. No:94/D;28.819729;41.037716
Bağcilar;15 TEMMUZ MAH. ISTIKLAL CAD.ILGIÇ APT. NO:17/A;28.8207263;41.0401907
Bağcilar;15 TEMMUZ MAHALLESI FEVZI ÇAKMAK CADDESI NO:93-97/A;28.824796;41.041297
Bağcilar;15 TEMMUZ MAHALLESI istiklal caD 25C;28.819839;41.034525
Bağcilar;15 TEMMUZ MAHALLESI ISTIKLALCADDESI NO:57/D;28.819633;41.036974
Bağcilar;15 TEMMUZ MAHALLESI şEHIT MURAT KARAYAZI SOKAK NO:26/A;28.81462;41.041077
Bağcilar;15 Temmuz Mh Istiklal Caddesi No : 10;28.819649;41.037157
Bağcilar;15 TEMMUZ MH. 1498 Sokak No:7;28.813906;41.031968
Bağcilar;15 TEMMUZ MH. Mareşal Fevzi Çakmak Caddesi No:1;28.822868;41.03718
Bağcilar;BağcIlar Cad. Yenigün Mah. 612. Sok. No:7-9/A-B;28.85953852635879;41.020291834293104
Bağcilar;BAğCILAR CD. No:59/A No:59/A;28.856996;41.029068
Bağcilar;BAğCILAR CINAR MH ISTANBUL CD NO :10;28.858629;41.034491
Bağcilar;BağcIlar Istanbul Cad. Merkez Mah. 677. Sok. No:15A-B-C;28.860743297198958;41.032816319422885
Bağcilar;BağcIlar Mah. Ahmet yesevi Cad. No:104/B;28.844137;41.031555
Bağcilar;BağcIlar Mahmut Bey Mah. H.Bostan Cad. No:24/B;28.821421;41.059318
Bağcilar;BAğLAR MAH 49. SOK NO:22 22;28.825746;41.026384
Bağcilar;Bağlar Mah. 19.Sok. No:1e;28.822529854014167;41.0283412983357
Bağcilar;Bağlar Mah. Atatürk Cad. 24 .Sok. No: 8A,8B;28.828011111213392;41.02870433886208
Bağcilar;Bağlar Mah. Atatürk Cad. şafak Sok. No:2/B;28.830453;41.026399
Bağcilar;Bağlar Mah. Engin Sok. No:39;28.826158;41.026618
Bağcilar;BAğLAR MAHALLESI 49 SOKAK NO:35/D;28.825437;41.023986
Bağcilar;Bağlar Mh 49. Sokak No : 10;28.825442;41.023888
Bağcilar;BAğLAR MH. PInar Sokak No:1;28.827444;41.02856
Bağcilar;BAğLAR MH. şimşek Sk. No:1;28.827755;41.023905
Bağcilar;BARBAROS MAH 171 2A;28.835455;41.028919
Bağcilar;BARBAROS MAH 18 SOK NO:2/D;28.835442;41.028921
Bağcilar;BARBAROS MAH MAHMUTBEY CAD. NO:98/B;28.835488;41.028736
Bağcilar;Barbaros Mah. 201 .Sok. No:14A /19;28.83929284002645;41.0245722385423
Bağcilar;BARBAROS MAH. 6/2 SOK. No:15;28.844357;41.021682
Bağcilar;Barbaros Mah. Mahmutbey Cad. 200. Sok. No:4A;28.83743162042198;41.02518269106072
Bağcilar;BARBAROS MAH. MAHMUTBEY CAD. NO:12/D;28.83876;41.022998
Bağcilar;Barbaros Mah. Mahmutbey Cad. No:42/C;28.837471;41.024836
Bağcilar;BARBAROS MAHALLESI 210.SOKAK NO 18A/B;28.87007299;41.04168918
Bağcilar;BARBOROS 18 SOK NO:2/D;28.835442;41.028921
Bağcilar;Barboros Mahmutbey No:64;28.836143;41.025936
Bağcilar;Barboros Mahmutbey Yolu 173 No:2-C;28.835220;41.029190
Bağcilar;CIFTLIK FATIH MAH. ESKIPAZAR CAD. NO:28;28.8461;41.0486
Bağcilar;ÇINAR  MAHALLESI 842  SOK NO 27 A-B;28.860588;41.037288
Bağcilar;ÇInar 5/2 No:6/2;28.859474;41.035972
Bağcilar;ÇInar 6-1 No:7;28.860494;41.035202
Bağcilar;ÇINAR FATIH NO:115/A;41.040338;28.859944
Bağcilar;ÇINAR Mah FATIH Cad No:75/B;28.864048;41.039618
Bağcilar;ÇInar Mah Osmangazi Cad No:58/D;28.858988;41.039669
Bağcilar;ÇInar Mah. 756. Sok. No:19 / B;28.868075006692422;41.036735527686425
Bağcilar;ÇInar Mah. 797. Sok. No:13A;28.864647064688292;41.03875892155304
Bağcilar;ÇInar Mah. 855 Sok. No:3B;28.86484236824936;41.033718306270686
Bağcilar;ÇINAR MAH. Aktuğ Sok. No:2;28.8593;41.0366
Bağcilar;ÇInar mah. Esenler cad. no:7C;41.0338211;28.8623457
Bağcilar;ÇInar Mah. Osmangazi Cad. No:44 / Z1;28.859098998226504;41.0383941056048
Bağcilar;ÇINAR MH 802 SOKAK NO:30/A;28.864346;41.037022
Bağcilar;ÇINAR MH. 10/2. Sk. No:1;28.864882;41.0351
Bağcilar;ÇINAR MH. 8/5. Sk. No:1;28.862779;41.037259
Bağcilar;ÇIFTLIK MAHMUTBEY YOLU VELIOGLU CAD. FATIH MAH. NO:2-C CIFTLIK;28.847399;41.043158
Bağcilar;Çinar mh 823. sk NO: 5/A;28.8568352;41.05037895
Bağcilar;DEMIRKAPI MAH. Halide Edip AdIvar Cd. No:2;28.835157;41.047416
Bağcilar;DEMIRKAPI MAH. OSMANOğLU CAD.Nergiz Sok. No:2/1;28.8354;41.0512
Bağcilar;DEMIRKAPI MAH. Yonca Sok. No:15;28.8403;41.0456
Bağcilar;DEMIRKAPI MASLAK NO:36 GÖZTEPE;28.8375;41.0542
Bağcilar;DEMIRKAPI MH. Velioğlu Cd. No:1;28.84468;41.048286
Bağcilar;Demir KapI Mah. BağcIlar AsfaltI Cad. No:87/C;28.838811;41.045794
Bağcilar;DemirkapI BağcIşar Cad. Ahmet Haşim Sok.. No:18;28.8338291;41.046866
Bağcilar;DEMIRKAPI MAH 1615.SOK. NO.17/A;28.896934491;41.0999
Bağcilar;DEMIRKAPI MAH ALTINEL SOK HUZUR SITESI A BLOK D:3 NO:38;28.84;41.0484
Bağcilar;DemirkapI mah AltInel sok. No:36;28.839449;41.049979
Bağcilar;DEMIRKAPI MAH YONCA SOKAK NO:52/A;28.839994;41.0472
Bağcilar;DemirkapI Mah. 1598 Sok. No:4A;28.83295757505357;41.045837182160696
Bağcilar;DEMIRKAPI MAH. BAğCILAR ASF NO:5/2;28.831367;41.045571
Bağcilar;DemirkapI Mah. BağcIlar AsfaltI Cad. No:123I;28.846606338627687;41.042591051655045
Bağcilar;DemirkapI Mah. BağcIlar AsfaltI Cad. No:47B;28.834780;41.045372
Bağcilar;DemirkapI Mah. Maslak Cad. No:2 4G;28.830568;41.052856
Bağcilar;DemirkapI Mah. şehit Nedim Demir Sok. No:9A;28.832957854615348;41.05158154599433
Bağcilar;DemirkapI Mah. Velioğlu Cad. No:127;28.838262;41.053121
Bağcilar;DemirkapI Mah. Velioğlu Cad. No:82-C;28.842496495361846;41.05046015633289
Bağcilar;DemirkapI Mah.1635. Sok. No: 16A;28.83674921387191;41.049227140864204
Bağcilar;DemirkapI Mahallesi 1606 Sokak No:64;28.832735;41.048753
Bağcilar;DEMIRKAPI MAHALLESI 1648 SOKAK NO45AB;28.83505;41.052271
Bağcilar;DEMIRKAPI MAHALLESI VELIOğLU C ADDESI NO 35/A;28.8468330991762;41.0450531784188
Bağcilar;DemirkapI mahmisket sok No:20/;28.834407;41.049376
Bağcilar;DemirkapI Maslak No:38/A;28.837715;41.054369
Bağcilar;EVREN MAH GULBAHAR CAD NO:86/A;28.813907;41.038032
Bağcilar;EVREN MAH SABIHA CAD SANAYI SK NO:38;28.818501;41.042642
Bağcilar;Evren Mah. Gülbahar Cad. Nil Sok. No:2;28.845173;40.994150
Bağcilar;Evren Mah. KIzIlIrmak Cad. No:50/A;28.819826;41.0409
Bağcilar;EVREN MH. 8. Sk. No:1;28.8168;41.03477
Bağcilar;EVREN MH. Gönül Sk. 106/1;28.812589;41.04175
Bağcilar;FATIH MH. Emre Çk. No:1;28.845699;41.054573
Bağcilar;FATIH MH. Fidan Sokak No:1;28.845621;41.0486
Bağcilar;FATIH MH. Velioğlu Caddesi 38;28.846533;41.04575
Bağcilar;Fatih Eski Pazar No:151 Yürüyüş Yolu;28.845848;41.056205
Bağcilar;FATIH MAH 1823 Sokak NO: 5 A;28.845659;41.048438
Bağcilar;FATIH MAH ESKI PAZAR CAD NO:64;28.84623;41.050396
Bağcilar;FATIH MAH SEMT PAZAR CAD NO:108;28.846479;41.053132
Bağcilar;Fatih Mah. Cami Cad. No:75A;28.842830152412173;41.05488482108206
Bağcilar;Fatih Mah. Eski Pazar Cad. No:21;28.84598;41.049639
Bağcilar;Fatih Mah. Eskipazar Cad. No: 36A;28.846139398318908;41.049121877949986
Bağcilar;Fatih Mah. Velioğlu Cad. No: 20/A;28.84724004240178;41.044481524948154
Bağcilar;FATIH MAHALLESI CAMI CADDESI NO:34-36/A34-36/B34-36/C;28.843296;41.052487
Bağcilar;FATIH MAHALLESI MASLAK CADDESI NO:84/A;28.842936;41.055594
Bağcilar;Fatih Maslak Kaptan;28.839099;41.054573
Bağcilar;FATIH PAZAR NO:150/B;28.846407;41.055635
Bağcilar;FEVZI CAKMAK MAH DAGYOLU CAD 2 SOK NO:2;28.8594;41.0405
Bağcilar;FEVZI ÇAKMAK MH. OSMANGAZI CD.1/2 Sk. No:76/A;28.859332;41.041222
Bağcilar;FEVZI CAKMAK MAH. OSMANGAZI CAD. 84/A;28.859984;41.048537
Bağcilar;Fevzi Çakmak 2/10 No:2-C;28.859842;41.045299
Bağcilar;Fevzi Çakmak Cad. Güneşli Mah. No:88-A;28.82509247235472;41.04089657143169
Bağcilar;Fevzi Çakmak Mah. 2005 Sok. No:128A;28.858488501503682;41.04927650313022
Bağcilar;Fevzi Çakmak Mah. 2035.Sok. No:9 A-B;28.856312186156053;41.04562282806355
Bağcilar;Fevzi Çakmak Mah. 2051. Sokak 40/A;28.85418222517832;41.04616589634137
Bağcilar;Fevzi Çakmak mah. AtIşalanI cad. No:172/A;28.8742089;41.0494693
Bağcilar;Fevzi Çakmak Mah. NamIk Kemal Cad. No:2/A;28.848591;41.043301
Bağcilar;Fevzi Çakmak Mah. Osman Gazi Cad. No:129b;28.85950030350972;41.044417209585305
Bağcilar;Fevzi Çakmak Mah. Osman Gazi Cad. No:135/A;28.8574764;41.0449783
Bağcilar;Fevzi Çakmak Mah.Fatih Sultan Mehmet Cad. 2003 Sok. No:1/A;28.85693938428877;41.04108238317645
Bağcilar;Fevzi çakmak mahallesi Osmangazi(dağyolu) caddesi No: 1;28.859662;41.046028
Bağcilar;Fevzi Çakmak mahjallesi 10/B Sokak No:6-8/A-8/B;28.85647;41.045055
Bağcilar;Fevzi Çakmak Osmangazi No:24 Dağ Yolu ParkI YanI;28.859319;41.042419
Bağcilar;Göztepe Karanfil Evleri A Blok No:59/A;28.838863;41.05762
Bağcilar;GÖZTEPE MAH 2356 SOK NO:1/2B-C;28.831872;41.055254
Bağcilar;Göztepe Mah Özlem Sokak 9;28.838247230731184;41.06100948142401
Bağcilar;GÖZTEPE MAH şEHIT MEHMET ÖZCAN SOKAK NO:5/A;28.835163;41.060907
Bağcilar;Göztepe Mah. 2296. Sok. No:6/A;28.83813;41.057969
Bağcilar;Göztepe Mah. Maslak Cad. 2337 Sok. No:53/A;28.832445810171000;41.05373941733150
Bağcilar;Göztepe Mah. Maslak Cad. No:7/13;28.83245385832879;41.05373336892917
Bağcilar;Göztepe Mah. Orhan Gazi Cad. No:5g-5h;28.833482193876456;41.0600776536057
Bağcilar;GÖZTEPE MAHALLESI 2370 SOK NO:3A;28.833613;41.055774
Bağcilar;Göztepe Mh 2356. Sokak NO : 1;28.831362;41.054536
Bağcilar;GÖZTEPE MH. Kartal Sk. No:1;28.837993;41.056124
Bağcilar;GÖZTEPE MH. Maslak Caddesi 1;28.841976;41.055631
Bağcilar;GÖZTEPE MH. Maslak Caddesi 16/A-B;28.834755;41.053855
Bağcilar;Göztepe Zambak No:42;28.837613;41.057109
Bağcilar;GUNESLI MAH KIRAZLI CAD NO:17/A;28.830721;41.033119
Bağcilar;GÜNEşLI MAH. KIRAZLI CAD.Kuloğlu Sok. No:26;28.83005;41.032591
Bağcilar;GÜNEşLI MH. Anafartalar Caddesi 27;28.83103;41.037965
Bağcilar;GÜNEşLI MH. Ayçin Sk. (Evren Sk.) No.40;28.831092;41.041214
Bağcilar;GÜNEşLI MH. Evren Caddesi 65/A;28.826703;41.036591
Bağcilar;GÜNEşLI MH. Mareşal Fevzi Çakmak Caddes 76-86/B;28.82517;41.040582
Bağcilar;GÜNEşLI 15 TEMMUZ ÜSKÜP CAD. 19/A;28.826644;41.033317
Bağcilar;Güneşli Cumhuriyet No:40 /Güneşli MeydanI;28.828336;41.031135
Bağcilar;güneşli evren cd 61;28.826628;41.036324
Bağcilar;GÜNEşLI MAH EVREN CAD NO:118;28.828578;41.041899
Bağcilar;GÜNEşLI MAH FEVZI ÇAKMAK CADDESI NO:34\B;28.823619;41.0368312
Bağcilar;GÜNEşLI MAH KIRAZLI CAD NO:29;28.829581;41.032603
Bağcilar;Güneşli Mah. 1286. Sokak No:2;28.830352195056772;41.03408935606142
Bağcilar;Güneşli Mah. 1300 Sok. No:46-48AB;28.831043210096333;41.041888321281654
Bağcilar;Güneşli Mah. 1332 Sok. No:7a;28.825846597522787;41.03264216421416
Bağcilar;Güneşli Mah. Fevzi Çakmak Cad. No: 28;28.823664152440617;41.036178811719054
Bağcilar;Güneşli Mah. KirazlI Cad. No:31;28.829372;41.032543
Bağcilar;Güneşli Mah. KirazlI Cad. No:40/C;28.829486;41.032714
Bağcilar;Güneşli Mah. Mahmutbey Cad No:223G;28.82973758748187;41.04492208363710
Bağcilar;Güneşli Mah. Üsküb Cad. No:78A;28.827333040334924;41.038307888925665
Bağcilar;GÜNEşLI MAH. ÜSKÜP CAD A BLOK NO:129-133 D;28.825011;41.0420204
Bağcilar;Güneşli Mah. Üsküp Cad. No:134A;28.829173097523164;41.04365247109254
Bağcilar;Güneşli Mah.KirazlI Cad. 33;28.830542075329213;41.032663281883536
Bağcilar;GÜNEşLI MAHALLESI 1271 SOKAK NO 14/A-B;28.71805;40.98620
Bağcilar;Güneşli Mahallesi 1275 Sokak No: 1;28.832845;41.03515
Bağcilar;Güneşli Merkez Mah. KirazlI Cad. No:41;28.828551;41.042508
Bağcilar;Güneşli Merkez Mah. KirazlI Cad. No:6/B;28.832573197720826;41.034194029997906
Bağcilar;HURRIYET MAH CUMHURIYET CAD NO:45/A;28.827607;41.031433
Bağcilar;HURRIYET MAH CUMHURIYET CAD NO43/1;28.8278;41.0314
Bağcilar;HURRIYET MAH ATATURK CD NO:47;28.829342;41.027225
Bağcilar;HÜRRIYET MH. AltIn Sokak NO:1;28.837255;41.025483
Bağcilar;HÜRRIYET MH. Mahmutbey Cd. No:69/A;28.835163;41.028832
Bağcilar;HÜRRIYET MH. Menderes Cd. No:1;28.830161;41.023338
Bağcilar;HÜRRIYET MH. şencan Sokak 7;28.834788;41.026993
Bağcilar;HÜRRIYET MAH ATATÜRK CAD NO98/B;28.828693;41.023732
Bağcilar;Hürriyet Mah. 90. Sok. No:12/B;28.83063535028406;41.03038006394835
Bağcilar;Hürriyet Mah. Atatürk Cad. No:19/B;28.82823;41.029876
Bağcilar;Hürriyet Mah. Atatürk Cad. No:71/A;28.829041703946757;41.025246290987624
Bağcilar;Hürriyet Mah. Mahmutbey Cad. No :91A;28.834511002676926;41.03065092528592
Bağcilar;HÜRRIYET MAH. MENDERES CAD. 24A;28.82951;41.029597
Bağcilar;Hürriyet Mah. Menderes Cad. 86.Sok. No:7/C;28.829113;41.030301
Bağcilar;Hürriyet Mah. Menderes Cad. No.97/C;28.830306;41.022594
Bağcilar;Hürriyet Mah. Menderes Cad. No:61;28.830652;41.026413
Bağcilar;Hürriyet Mahallesi Mahmutbey Caddesi 15/B;28.837106587327856;41.02465841453842
Bağcilar;Hürriyet Mahallesi Mahmutbey Caddesi No:65-65G;28.835155;41.028477
Bağcilar;Hürriyet Mh şencan Sk No:36/A-36/B;28.83464;41.027144
Bağcilar;Inönü Mah. 410 Sok. No:10/A;28.849532;41.031756
Bağcilar;Inönü Mah. 410. Sok. No:19AB;28.849758819899876;41.03156155204585
Bağcilar;Inönü Mah. 428 Sok. No:8AB;28.855005167824277;41.03310217929832
Bağcilar;Inönü Mah. şehit YIlmaz Kaan Cad. No:2A;28.85607851551175;41.03023665962566
Bağcilar;Inönü Mh Hoca Ahmet Yesevi Cd NO:37/A;28.850561;41.033058
Bağcilar;ISTOÇ 33.ADA No:18/20/22/24;28.818;41.0651
Bağcilar;KAZIM KARABEKIR MAH 1/7 SK NO:35;28.84525;41.024722
Bağcilar;KAZIM KARABEKIR MAH. HOCA AHMET Yesevi Cad. Yonca Iş Mrk. No:143 Ze;28.839476;41.030414
Bağcilar;KAZIM KARABEKIR MAH. MEVLANA CAD.2/19 D Sok.  Dük:25-26 No:4;28.8435;41.0298
Bağcilar;KAZIM KARABEKIR MH. 2. Sokak 2;28.843912;41.027869
Bağcilar;KazIm Karabekir Cad. 292.Sok No:36/C;28.8589452;41.0422127
Bağcilar;KAZIM KARABEKIR MAH 220 Sokak NO: 96/98A-B-C;28.840047;41.028682
Bağcilar;KAZIM KARABEKIR MAH HOCA AHMET YESEVI CAD.291. SOK. NO:30/B;28.851028;41.033281
Bağcilar;KazIm Karabekir Mah. 2. Sok. No:17/B;28.845709;41.024403
Bağcilar;KazIm Karabekir Mah. 292. Sok. No:61A-B;28.84315705303132;41.02844500961624
Bağcilar;KazIm Karabekir Mah. Ahmet Yesevi Cad. No:65/B;28.8361878;40.9980236
Bağcilar;KazIm Karabekir Mah. Ahmet Yesevi Cad. No103;28.843711;41.031233
Bağcilar;KazIm Karabekir Mah. Hoca Ahmed Yesevi Cad. No:101B-C;28.844196811426453;41.0313640600211
Bağcilar;KAZIMKARABEKIR MH. 1/13. Sk. NO:62;28.841922;41.026001
Bağcilar;Kemal Paşa Mah. 20. Cad. No:20/5;28.852216;41.046595
Bağcilar;Kemal Paşa Mah. NamIk Kemal Cad. No.96/b;28.849532;41.051792
Bağcilar;Kemal Paşa Mah. NamIk Kemal Cad. No:133B;28.849288656708513;41.054244160273676
Bağcilar;Kemal Paşa Mah. NamIk Kemal Cad. No:34/b;28.850181;41.045851
Bağcilar;KEMAL PAşA MAH. NAMIK KEMAL CD. NO: 36 /A -B;28.850293;41.046374
Bağcilar;KEMALPAşA  MAHALLESI 1954  SOKAK NO:2/A;28.852946;41.050748
Bağcilar;KEMALPAşA 13/1 sOKAK No:/B;28.849247;41.050025
Bağcilar;KEMALPAşA MAH NAMIK KEMAL CAD NO:95;28.849459;41.051207
Bağcilar;KEMALPAşA MAH NAMIKKEMAL CAD NO 117/A;28.8493952;41.053038
Bağcilar;Kemalpaşa Mah. NamIk Kemal Cad. No:141/A;28.8470433;41.054705
Bağcilar;KEMALPAşA MH. 16/1. Sk. No:1;28.8491;41.048863
Bağcilar;KEMALPAşA MH. 20. Cadde 22/A;28.854044;41.047439
Bağcilar;KEMALPAşA MH. NAMIK KEMAL CD. No:61/1-5;28.8494;41.0504
Bağcilar;KEMALPAşA NAMIK KEMAL CADDESI NO:46;28.850014;41.048257
Bağcilar;KIRAZLI MH. Cevizli Sokak 10-16/A;28.834996;41.034333
Bağcilar;KIRAZLI MH. Mevlana Caddesi 71-73A;28.841006;41.038226
Bağcilar;KIRAZLI MH. ZÜBEYDE HANIM CD. No:80/A;28.844411;41.033813
Bağcilar;KIRAZLI MH. ZÜBEYDE HANIM CD.Bayramoğlu Sk. No:2;28.8393;41.0345
Bağcilar;KIRAZLI CAD AYDINLAR Iş HANI GÜNEşLI NO:3;28.832387;41.03389
Bağcilar;KIRAZLI MAH AHMET KABAKLI CD. NO :35/A;28.844178;41.039822
Bağcilar;KirazlI Mah. 1226. Sok. No:7/1B;28.839051408765595;41.035279178874575
Bağcilar;KIRAZLI MAH. AHMET KABAKLI CADDESI 78/A;28.84429;41.037469
Bağcilar;KirazlI Mah. Tavukçu Köprüsü Cad. No:33;28.841674770541413;41.03922410247959
Bağcilar;KirazlI Mah.1128 Sok. No:6A;28.843909980626577;41.03837432595149
Bağcilar;KIRAZLI MAHALLESI CEVIZLI SOKAK NO:18/A;28.835847;41.034216
Bağcilar;KIRAZLI MAHALLESI MEVLANA CADDESI NO:92/A;28.841713;41.037574
Bağcilar;KirazlI Mahallesi Zübeyde HanIm Caddesi No:43/A-B;28.841013;41.034766
Bağcilar;Kirazli Mah. YIldIIrm Sok. No:19;28.847672;41.032324
Bağcilar;MAHMUT BEY CAD KAPLAN ISMERKEZI NO 66/3;28.836278;41.025999
Bağcilar;MAHMUTBET MAH. 2517 SOK. NO:1A;28.821816;41.059289
Bağcilar;MAHMUTBEY MAH KARAOğLANOğLU CAD NO:30-32/B;28.821918;41.047691
Bağcilar;Mahmutbey Mah. 2601 Sok. No : 14/ A;28.82492907630454;41.04793599524899
Bağcilar;Mahmutbey Mah. Karaoğlanoğlu Cad. 2633. Sok. No:54A;28.819083171428606;41.045279765815714
Bağcilar;Mahmutbey Mah. Karaoğlanoğlu Cda. No:28/A;28.822104;41.047688
Bağcilar;Mahmutbey Mah. şehit Ertuğrul Sok. No:24a,24b;28.826277641705442;41.05457247677625
Bağcilar;Mahmutbey Mh. Gazi Mustafa Kemal Caddesi No:1;28.827567;41.053361
Bağcilar;MAHMUTBEY MH. Mostar Köprüsü Cd. 12;28.823853;41.047015
Bağcilar;Mahmutbey Mh.Soğuksu Cad. 17;28.82683005826183;41.05724009263901
Bağcilar;Merkez 2/9 No:4/A;28.860517;41.029148
Bağcilar;MERKEZ 25. SOK. NO:58/C;28.863216;41.033315
Bağcilar;Merkez 674 No:34/B;28.860321;41.033626
Bağcilar;MERKEZ BAğCILAR NO:23/A;28.856446;41.03216
Bağcilar;MERKEZ MAH 2 sk NO:1;28.8594;41.0335
Bağcilar;MERKEZ MAH GÜNGÖREN  CAD NO:27 /A;28.863122;41.031298
Bağcilar;MERKEZ MAH. 2. Sok. No:58;28.859748;41.029408
Bağcilar;MERKEZ MAH. 25/4 Sok. No:1;28.862;41.0334
Bağcilar;Merkez Mah. 674. Sok No:26/C;28.8570336;41.0334498
Bağcilar;Merkez Mah. 674.Sok. No:25/21;28.860596;41.033581
Bağcilar;Merkez Mah. 674.Sok. No:42/A;28.861515;41.033481
Bağcilar;Merkez Mah. 714 . Sok. No:14A-B;28.861252145605928;41.04420309385232
Bağcilar;Merkez Mah. BağcIlar Cad. No:77/B;28.857208;41.027947
Bağcilar;Merkez Mah. Esenler Cad. No: 44A;28.86680914618704;41.034582513525436
Bağcilar;MERKEZ MAH. ISTANBUL NO:2/F;28.857346;41.034195
Bağcilar;MERKEZ MAHALLESI 5. SOKAK NO:33;28.8664;41.032727
Bağcilar;MERKEZ MAHALLESI 677 SOKAK NO:29/A;28.860585;41.031298
Bağcilar;Merkez Mahallesi 706 Sokak 2b;28.861398756084956;41.03168265670989
Bağcilar;merkez menderes MERKEZ MAH.MENDERES CAD.NO:2;28.828191;41.031059
Bağcilar;Merkez Merkez No:1;28.8417;41.0347
Bağcilar;MERKEZ MH. 1.SK. No:18/A;28.857964;41.032824
Bağcilar;MERKEZ MH. 25-4. Sokak 25/12-13-14;28.862436;41.031555
Bağcilar;MERKEZ MH. 5/6A Sk. No:1;28.86736;41.032909
Bağcilar;MERKEZ MAHALLESI 673. SOKAK NO:46/A-B-C;28.861924;41.032387
Bağcilar;Mimar Sinan Cad. Ünverdi Sok. No: 35 I;28.82542624383281;41.02434681556114
Bağcilar;SANCAKTEPE 896.SOK NO:9/B;28.858059;41.0350773
Bağcilar;Sancaktepe Birlik No:40/B;28.852590;41.038314
Bağcilar;Sancaktepe ÇarşI No:86/A;28.857954;41.040431
Bağcilar;Sancaktepe Istanbul No:1/1;28.857246;41.034564
Bağcilar;SANCAKTEPE MAH 892 SOK NO:7/A;29.069224;41.021575
Bağcilar;SANCAKTEPE MAH 912 SOK NO20/A;28.854833;41.03777
Bağcilar;SANCAKTEPE MAH CARşI CAD NO:51/A;28.85756761;41.03878235
Bağcilar;SANCAKTEPE MAH FATIH CAD NO:177/A;28.854;41.041774
Bağcilar;SANCAKTEPE MAH OSMAN GAZI CAD NO:17/A;28.858429;41.035738
Bağcilar;SANCAKTEPE MAH. 3. SOK. PARK APART 3-4 Nolu Dükkan No:19;28.855797;41.036876
Bağcilar;Sancaktepe Mah. 919 Sok. No:29/B;28.857904;41.038793
Bağcilar;Sancaktepe Mah. Birlik Cad. No:24/B;28.853138974209315;41.03703741918027
Bağcilar;SANCAKTEPE MAH. ÇARşI CAD. NO:9/B;28.85686;41.03575
Bağcilar;SANCAKTEPE MAH. SOK. NO:20/A;28.8547875;41.0378275
Bağcilar;SANCAKTEPE MAHALLESI 903  SOKAK NO:17/A-B-C;28.855524;41.036887
Bağcilar;SANCAKTEPE MAHALLESI BIRLIK CADDESI NO:42/A;28.852595;41.038503
Bağcilar;SANCAKTEPE MH. 3/2 Sk. No:8/B;28.854212;41.037754
Bağcilar;SANCAKTEPE MH. 8-4. Sokak 171/A;28.854656;41.041532
Bağcilar;YAVUZ SELIM 5/1 SOK. NO:5 ÇIFTLIK MEYDANI;28.848037;41.042773
Bağcilar;YAVUZ SELIM MH. 3. Sk. No:1;28.851572;41.038185
Bağcilar;YAVUZ SELIM MH. Hoca Ahmet Yesevi Cd. No:1;28.850961;41.033281
Bağcilar;Yavuz Selim Birlik No:23/A;28.853338;41.036384
Bağcilar;YAVUZ SELIM MAH BIRLIK CAD 109B;28.849609;41.043451
Bağcilar;Yavuz Selim Mah. 1093 Sok. No:7/C;28.122020;41.042827
Bağcilar;Yavuz Selim Mah. 984 Sok. No:1e;28.85005199752309;41.038732464390385
Bağcilar;Yavuz Selim Mah. Mehmet Akif BulvarI No:116/AB;28.847033490777473;41.034481650981455
Bağcilar;Yavuz Selim Mahallesi 26/11 sokak No:26-32A/B;28.848271;41.033745
Bağcilar;yavuz selimmah birlik cad 109B;28.849583;41.043449
Bağcilar;YAVUZSELIM MAHALLESI 1061 SOKAK NO:9/A;28.845854;41.038684
Bağcilar;YENI MH. Mevlana Cd. No:174/A-B;28.839159;41.044086
Bağcilar;YENIGUN MAH. BAGCILAR CAD. NO:139/B;28.857418;41.023621
Bağcilar;YENIGÜN M. 10.SK. Parseller No:26;28.8594;41.0227
Bağcilar;YENIMAHALLE MH. 6. Sk. No:1;28.843781;41.041649
Bağcilar;YENIMAHALLE MH. Dökümcüler Cd. No:1;28.835429;41.043753
Bağcilar;YENIMAHALLE MH. Kalender Sk. No:1;28.843279;41.043979
Bağcilar;Yeni Ahmet KabaklI No:1/B;28.844098;41.043298
Bağcilar;Yeni BağcIlar No:44;28.835250;41.044918
Bağcilar;Yeni Mah Tavukçuköprü Cad No:8/A;28.843599;41.039897
Bağcilar;Yeni Mah. 1545 Sok. No:1-3b/3c;28.659675997523195;41.04376334641597
Bağcilar;Yeni Mah. Ahmet KabaklI Cad. No:30/B;28.843958;41.041048
Bağcilar;Yeni Mah. BağcIlar AsfaltI Cad. No: 120A;28.83968841928036;41.04469995220016
Bağcilar;Yeni Mah. Tvaukçu Köpri Sok. No:54/A;28.840681;41.039221
Bağcilar;Yeni Mahalle Mahallesi 1540 Sokak  blk -D No:15-21/A;28.837993;41.042163
Bağcilar;Yeni şehit Güntay Polat No:20/A;28.835105;41.044944
Bağcilar;YENIGÜN MAH 10 SOK NO :14 B;28.858476;41.022484
Bağcilar;Yenigün Mah. 1.Sok. No:4/A;28.860298819613334;41.018100030652334
Bağcilar;Yenigün Mah. BağcIlar Cad. 656. Sok. No:6B;28.85773554505116;41.02729150174745
Bağcilar;Yenigün Mah. BağcIlar Cad. No:117/A;28.857401;41.025028
Bağcilar;YENIGÜN MAHALLESI 628 SOKAK NO:4/A;28.857786;41.022377
Bağcilar;Yenimahalle Mah. BağcIlar AsfaltI Cad. No:70-72a;28.836059997523353;41.046917084928786
Bağcilar;YENIMAHALLE MAHALLESI 1545 SOKAK B BLOK APT NO:1-3D/3E;28.835847;41.044091
Bağcilar;YENIMAHALLE MAHALLESI BAğCILAR ASFALTI CADDESI NO:162/A;28.844323;41.043328
Bağcilar;YENIMAHALLE MAHALLESI BAğCILAR ASFALTI CADDESI, NO:100/A-B;28.838669;41.045628
Bağcilar;YILDIZ TEPE MAH şEHIT YILMAZ KAAN CAD NO:2;28.853601;41.028348
Bağcilar;YIldIztepe 31. Sok. No:1A;28.856982;41.027391
Bağcilar;YIldIztepe BağcIlar/36. No:1/C;28.8574;41.02326
Bağcilar;YILDIZTEPE MAH BAGCILAR CAD 33 SOK KOSESI NO:1;28.8572;41.0249
Bağcilar;YILDIZTEPE MAH KAAN YILMAZ CAD. NO:198;28.8565;41.0301
Bağcilar;YIldIztepe Mah. 532. Sok. No:5A;28.85132204996018;41.02394809049063
Bağcilar;YIldIztepe Mah. 562. Sok. No:29B;28.853116518018776;41.02140842744509
Bağcilar;YILDIZTEPE MAHALLESI 584 SOKAK NO:13;28.856798;41.021434
Bağcilar;YILDIZTEPE MAHALLESI şEHIT TEğMEN HASAN HÜSEYIN AKSOY CADDESI NO:50/A;28.852899;41.024316
Bağcilar;YIldIztepe Mh BağcIlar Caddesi NO : 1;28.857173;41.024621
Bağcilar;YILDIZTEPE MH. 32/3 Sk. No:1/A;28.854853;41.024977
Bağcilar;YILDIZTEPE MH. şht.YIlmazkaan Cd.30/6 Sk. No:1;28.8536;41.0283
Bağcilar;YüzyIl Mah. 2214 Sok. No:1-3;28.855999230662462;41.070959135123864
Bağcilar;YüzyIl Mah. Barbaros Cad. 2122 Sok. No:8A;28.854713817362818;41.0570303525752
Bağcilar;YüzyIl Mah. Barbaros Cad. No:15;28.8527646;41.0569445
Bağcilar;YüzyIl Mah. Barbaros Cad. No:21/B;28.8527961;41.0593494
Bağcilar;YüzyIl Mustafa Kemal No:27-C;28.855480;41.069034
Bahçelievler;29 Ekim Cad. Kuyumcukent Kompleksi Atolye Bloğu Zemin Kat 8. Sokak No:18;28.81747;41.003337
Bahçelievler;ADNAN KAHVECI BLV. No:126 No:126;28.855668;40.997275
Bahçelievler;Ahmet Yesevi Cad. Bingöl Sok. No:21/2;28.839057;41.011837
Bahçelievler;AHMETYESEVI CADDESI BINDALLI SOKAK NO:44;28.839189;41.013406
Bahçelievler;AR-EL KULESI ALTI PILOT 86 SITE G BLOK NO:1;28.822951;41.017925
Bahçelievler;B.EVLER MH. AMIRAL NECDET URAN SK.2-8 Nolu dük. No:9;28.862738;41.00403
Bahçelievler;Bagcilar Cad. Ahmet Hasim Sok. No:18;28.8317386;41.0468578
Bahçelievler;BAHCELIEVLER MAHALLESI AMIRAL  NECDET URAN CADDESI no:1;28.8625730531506;41.0053893919436
Bahçelievler;BAHÇELIEVLER BAHÇELIEVLER BAHÇELIEVLER;28.87214;40.999217
Bahçelievler;Bahçelievler Doruk sok no:12/A-B;28.855118;41.019319
Bahçelievler;BAHÇELIEVLER FERIT SELIM PASA NO:3;28.8609;41.0011
Bahçelievler;BAHÇELIEVLER MAH SARMAşIK 2 SOK NO:1-A/1-B;28.876426;41.004563
Bahçelievler;Bahçelievler Mah Talatpaşa Cad No62;28.864273;41.008364
Bahçelievler;Bahçelievler Mah. Adnan Kahveci BulvarI No:89/A;28.86367893550246;41.00176215446758
Bahçelievler;Bahçelievler Mah. Celal Nuri Sok. No:13 AB;28.87348767500171;41.001617664476086
Bahçelievler;Bahçelievler Mah. ÇayIr Sok. No:10/A;28.876250645605158;41.0056585937492
Bahçelievler;Bahçelievler Mah. Elvan Sok No:11/C;28.8577373;41.0084329
Bahçelievler;Bahçelievler Mah. Kadir Has A.v.m Önü Halk Ekmek Büfesi;28.863807;40.995658
Bahçelievler;Bahçelievler Mah. Karikatirist Ramiz Sok. No:7/2;28.869066;41.000188
Bahçelievler;Bahçelievler Mah. Mehtap Sok. No:20A;28.87707263;41.00043552
Bahçelievler;Bahçelievler Mah.Talatpaşa Cad.Saray Apt. 43/A;28.86505161615729;41.004432293928375
Bahçelievler;Bahçelievler Mahallesi Hacer HanIm BayraklI Sokak No:4/A;28.865536;40.997008
Bahçelievler;BAHÇELIEVLER METRO ISTASYONU KÜLTÜR SOKAK METROPORT AVM KAT B2;28.861586;40.9957906
Bahçelievler;Bahçelievler Mh. Deli Hüseyinpaşa Cd. No:16A;28.8635253;41.008784
Bahçelievler;BAHÇELIEVLER MH. Hacer HanIm Sk. 5-1/A;28.865349;40.996984
Bahçelievler;BAHÇELIEVLER MH. HurmalI Sk. A-1;28.867454;41.008285
Bahçelievler;BAHÇELIEVLER MH. NACI KASIM CD.Erde Sok.  Dükkan 1-3-4 No:1;28.8739;41.0026
Bahçelievler;BAHÇELIEVLER MH. Tunç Dal YüzatlI Sk. No:1;28.86389;41.009986
Bahçelievler;BURSALI TAHIR BEY SOK BAHÇELIEVLER NO:2/1;28.864511;41.001465
Bahçelievler;CEDIT ALI PAşA MAH CIHAN SOK NO:15/1-2;28.835927;41.003979
Bahçelievler;CUMHURIYET MAH. Bereket Sok. No:1;28.8597;41.017
Bahçelievler;CUMHURIYET MH. 1. Ara Sokak 10;28.859933;41.017579
Bahçelievler;CUMHURIYET MH. Doruk Sk. No:1;28.855006;41.018915
Bahçelievler;CUMHURIYET MH. MARTI SK.Günay ap. No:10;28.859005;41.01907
Bahçelievler;CUMHURIYET MH. Meltem Cd. No:1;28.850876;41.019275
Bahçelievler;CUMHURIYET MH. SakIp SabancI Caddesi 1/A;28.853901;41.014958
Bahçelievler;Cumhuriyet Mah Meltem Cad No:39/A;28.8507;41.0204
Bahçelievler;Cumhuriyet Mah. BağcIlar Cad. No :161 B;28.85907;41.019485
Bahçelievler;Cumhuriyet Mah. Çelik Hançer Cad. No:5;28.852758;41.01575
Bahçelievler;Cumhuriyet Mah. KIbrIs Cad. No:15/A;28.858586951739753;41.01874315705051
Bahçelievler;Cumhuriyet Mah. Meltem Cad. No:4/2A;28.85086862641501;41.016992920909026
Bahçelievler;Cumhuriyet Mah. Mesut Sok. Imam-I Müslüm Cami AltI ;28.854407889171668;41.018901109286226
Bahçelievler;CUMHURIYET MAHALLESI KIZIL ELMA CADDESI NO:1;28.8605;41.0148
Bahçelievler;CUMHURIYET MH MELTEM CD NO:2/A-B-C;28.850706;41.016279
Bahçelievler;CUMHURIYET MIMARSINAN NO:61/A;28.851479;41.014017
Bahçelievler;cumhuriyet selmanI pak 1/9;28.859577;41.018295
Bahçelievler;Ç. Çeşme Mah. M. Paşa Cad. No:84;28.837516;41.022533
Bahçelievler;ÇAMLIK CAD. KANA SK 1 Ve 2 Nolu Dükkan Gökçeler Apt. NO:10;28.856325;41.0022
Bahçelievler;Çobançeşme Mah Fatih Cad. No:29/A;28.830142;41.001563
Bahçelievler;ÇOBANÇEşME MAH. FATIH CAD. No:57;28.8308;41.0038
Bahçelievler;Çobançeşme Mah. Fatih Cad. No:53/B;28.830807;41.003344
Bahçelievler;Çobançeşme Mah. Fatih Cad. No:81;28.831027;41.005657
Bahçelievler;ÇOBANÇEşME MAH. MITHATPAşA CAD Bağdat Sok. No:43;28.826725;41.004403
Bahçelievler;ÇOBANÇEşME MAH. MITHATPAşA CAD NO:21 No:21;28.826858;41.001439
Bahçelievler;Çobançeşme Mah. Mithatpaşa Cad. No:27;28.826746082928700;41.100228590767500
Bahçelievler;Çobançeşme Mah. Mithatpaşa Cad. No:77/B;28.827494255941500;41.100641108880050
Bahçelievler;ÇOBANÇEşME MAHALLESI, MITHATPAşA CADDESI NO69/71-A-B;28.827424;41.005825
Bahçelievler;ÇOBANÇEşME MH MITHATPAşA CD NO:29/B;28.827414;41.007394
Bahçelievler;ÇOBANÇEşME MH OKUL SK NO:36  - 38/B;28.8273291108211;40.999600137483
Bahçelievler;ÇOBANÇEşME MH. Arda Sokak 23;28.830211;41.001593
Bahçelievler;ÇOBANÇEşME MH. Mithatpaşa Cd. No:1;28.82658;41.003994
Bahçelievler;ÇOBANÇEşME MH. Mithatpaşa Cd. No:1;28.827524;41.008338
Bahçelievler;Delihüseyin Paşa Cad. 4;28.868374820455465;41.0082662195542
Bahçelievler;ESKI LONDRA ASFALTI KARLIDAğ APT. NO:97;28.862774;41.001395
Bahçelievler;Eski Londra AsfaltI Adnan Kahveci Bulv. No:133;28.8588;40.9988
Bahçelievler;FERIT SELIM PAşA C BASIN SIT NO:69;28.85882;41.008229
Bahçelievler;FERIT SELIMPASA CAD YAYLA NO:8;28.8607;41.0017
Bahçelievler;FERIT SELIM PAşA CAD NO:22 NO:22;28.859683;41.002967
Bahçelievler;Ferit Selim Paşa Ferit Selim Paşa No:3;28.860872;41.001081
Bahçelievler;Ferit Selim Paşa Mah. Ferit Selim Paşa Cad. No:22;28.859683;41.002967
Bahçelievler;FETIH CAD SIRINEVLER NO:34;28.8467;40.9948
Bahçelievler;Fevzi Çakmak Fatih No:146;28.831;41.0083
Bahçelievler;Fevzi çakmak Mah.  BeyazIt Cad.  No: 155/2;28.833212;41.008462
Bahçelievler;Fevzi Çakmak Mah. Dumlu PInar Cad. No:50;28.836509;40.992554
Bahçelievler;Fevzi Çakmak Mah. Fatih Cad. No:160;28.831201;41.008989
Bahçelievler;Fevzi Çakmak Mah. Fatih Cad. No:50/B;28.830459;41.000659
Bahçelievler;Fevzi Çakmak Mah. Fatih Cad. No:52/A;28.83039315594130;41.100099681426260
Bahçelievler;Fevzi Çakmak Mah. YIldIrIm BeyazIt Cad. No:39/B;28.834219;40.999958
Bahçelievler;Fevzi Çakmak Mahallesi YIldIrIm BeyazIt Caddesi Gençlik Sokak No:2/4;28.832993;41.004767
Bahçelievler;Fevzi Çakmak Mahallesi YIldIrIm BeyazIt Caddesi No:163;28.832108;41.008751
Bahçelievler;Hastane Yolu Kocasinan ÇAVUş PAşA KÖPRÜLÜ YOLU SK. No:3;28.842563;41.004448
Bahçelievler;Haznedar Mah. BağcIlar Cad. No:2/A;28.8706;41.0066
Bahçelievler;Haznedar MeydanI Üst Geçidi;28.870344;41.006275
Bahçelievler;HURMALI SOK HAZNEDAR N:8/A;28.867086;41.007489
Bahçelievler;HURRIYET MAH HURRIYET CAD NO:37;28.8409;40.9958
Bahçelievler;HÜRRIYET MAH. HÜRRIYET CAD.1 Ve 2 Nolu Dük. No:90;28.8407;40.9996
Bahçelievler;HÜRRIYET MAH. SEDEF SOK. ELIFNUR Apt.  Yenibosna No:2/2-3;28.842541;40.994641
Bahçelievler;HÜRRIYET MH. Ahmet Yesevi Cd.(Dereyolu Cd.) 42/A;28.838601;40.996599
Bahçelievler;HÜRRIYET MH. Hürriyet Cd. No:1;28.840589;40.997387
Bahçelievler;HÜRRIYET MH. Süphan Sokak 162;28.841118;41.005832
Bahçelievler;HÜRRIYET AHMET YESEVI NO:56/A;28.838629;40.998083
Bahçelievler;HÜRRIYET MAH AHMET YESEVI CAD ÇIğDEM SK NO:33;28.838891;41.00657
Bahçelievler;HÜRRIYET MAH AHMET YESEVI CAD NO:140A;28.838816;41.004875
Bahçelievler;HÜRRIYET MAH HÜRRIYET CAD NO:54;28.8409;40.9973
Bahçelievler;HÜRRIYET MAH ÖNDER SOKAK NO:3 -5/A-B;28.841595;41.00302
Bahçelievler;Hürriyet Mah. Ahmet Yesevi Cad. No:112/1a;28.838716;41.003047
Bahçelievler;Hürriyet Mah. Ahmet Yesevi Cad. No:120/2;28.838816;41.003575
Bahçelievler;Hürriyet Mah. Ahmet Yesevi Cad. Sedef Sok. No:33;28.838650596422400;40.099477153326870
Bahçelievler;Hürriyet Mah. Hürriyet Cad. No:28/A;28.84122002710570;40.099524822532280
Bahçelievler;Hürriyet Mah. KadIoğlu Sok. No:5/B;28.84191839827030;40.0997772717879800
Bahçelievler;Hürriyet Mah. Mahmut Bey Cad. No:15;28.842917;40.993572
Bahçelievler;Hürriyet Mah. Mahmutbey Cad. Dağlar Sok. No:1;28.84229362525800;40.099971931214050
Bahçelievler;Hürriyet Mah. Mahmutbey cad. No:51;28.842756;40.996282
Bahçelievler;Hürriyet Mah. Süphan Sok. No:2/B;28.841184184776700;41.1006127100395300
Bahçelievler;Hürriyet Mah.BakIrcIlar Sk. 12a;28.840241596323300;41.100826839066730
Bahçelievler;HÜRRIYET MAHALLESI AHMET YESEVI CD NO:48/A;28.838596;40.99714
Bahçelievler;HÜRRIYET MAHALLESI HÜRRIYET CAD NO:6/A;28.841099;40.992901
Bahçelievler;Hürriyet Mh. Sedef Sokak No : 17;28.840699;40.994544
Bahçelievler;HÜRRIYET MAHALLESI MAHMUTBEY CADDESI NO:105/A;28.842335;41.000407
Bahçelievler;IZZETTIN CALISLAR CD IZZETTIN CALISLAR CD. IZZETTIN CALISLAR CD. NO:26 (KOMSU FIRIN KARSISI);28.87066752;41.00220
Bahçelievler;IKINCI TAşYOL ÇAMLIK C NO:27/1;28.856878;41.001034
Bahçelievler;Izzettin ÇalIşlar Cad. No:48;28.870334;40.999980
Bahçelievler;Kartaltepe Mah Komik Hasan Efendi Sok E-5 Üstü;28.87323976;40.99852457
Bahçelievler;KOCASINAN MERKEZ MAH. Ordu Cad. No:27/A;28.845779;41.009151
Bahçelievler;KOCASINAN MERKEZ MH. Ahmet Yesevi Cd. (Dereyolu Cd.) No:1;28.839072;41.011795
Bahçelievler;KOCASINAN MERKEZ MH. Begonya Sokak 13;28.839304;41.021916
Bahçelievler;KOCASINAN MERKEZ MH. Cami 3. Sk. 5/7;28.841584;41.018902
Bahçelievler;KOCASINAN MERKEZ MH. Gazi Cd. No:1;28.839417;41.016826
Bahçelievler;KOCASINAN MERKEZ MH. Güneşli Cd. No.32;28.834704;41.020944
Bahçelievler;KOCASINAN MERKEZ MH. HanIm Sokak No No:1;28.833977;41.018220
Bahçelievler;KOCASINAN MERKEZ MH. Mahmutbey Caddesi 228/1;28.841563;41.009135
Bahçelievler;KOCASINAN MERKEZ MH. SakIp SabancI Cd. (SoğanlIbahçe Yol No:1;28.845645;41.017385
Bahçelievler;Kocasinan Mah. CamlI Sok. No:9;28.839837742447800;41.101173438950270
Bahçelievler;KOCASINAN MERKEZ MAH BAğCILAR YOLU CAD NO.32 A;28.844138;41.021163
Bahçelievler;KOCASINAN MERKEZ MAH OSMANGAZI SOK NO:33-A;28.845543;41.02113
Bahçelievler;KOCASINAN MERKEZ MAH PAşA SOK NO:82/A-B;28.837223;41.022387
Bahçelievler;Kocasinan Merkez Mah. Ahmet Yesevi Cad. No:200/B;28.8368825;41.012158
Bahçelievler;Kocasinan Merkez Mah. Bulut Sok. No:21/11;28.844188;41.016601
Bahçelievler;Kocasinan Merkez Mah. Eski Edirne AsfaltI Cad. No:31/A;28.8328;41.0182
Bahçelievler;Kocasinan Merkez Mah. Eski Edirne Yolu Cad. No:72/2A;28.83237201176450;41.101851019241710
Bahçelievler;Kocasinan Merkez Mah. Hür Sok. No:15/A;28.8395575117644;41.101114776168590
Bahçelievler;Kocasinan Merkez Mah. Kerkük Cad. No:2/3A;28.844314167587600;41.1021424437224700
Bahçelievler;Kocasinan Merkez Mah. Mahmutbey Cad. No:164/A;28.8413956;41.0065268
Bahçelievler;Kocasinan Merkez Mah. Mahmutbey Cad. No:278/A;28.839891;41.022006
Bahçelievler;Kocasinan Merkez Mah. Mahmutbey Yolu No:168/D;28.841381;41.007396
Bahçelievler;Kocasinan Merkez Mah. Malazgirt Cad. No:5-7A;28.50099;41.01242
Bahçelievler;KOCASINAN MERKEZ MAH. SITE 1 SOK. NO: B2-A;28.838706;41.016552
Bahçelievler;Kocasinan Merkez Mah. Site 1 Sok. No:19/A;28.83855462710620;41.101660117694300
Bahçelievler;Kocasinan Merkez Mah. SubaşI Sok. No:18-20/B;28.83914263875210;41.102130910330000
Bahçelievler;KOCASINAN MERKEZ MAHALLESI BAğCILAR CADDESI NO:22/A;28.843157;41.020374
Bahçelievler;KOCASINAN MERKEZ MAHALLESI CAMLI SOKAK, NO:9/B;28.843;41.004683
Bahçelievler;KOCASINAN MERKEZ MAHALLESI GAZI CAD NO:20/BA;28.839001;41.017808
Bahçelievler;KOCASINAN MERKEZ MAHALLESI INÖNÜ CADDESI NO:16/A;28.835694;41.01943
Bahçelievler;Kocasinan Merkez Mahallesi Mahmutbey Caddesi No 162/A;28.84156;41.017893
Bahçelievler;KOCASINAN MERKEZ MAHALLESI MAHMUTBEY CADDESI NO:355/A;28.8402639;41.020171
Bahçelievler;Kocasinan Merkez Mahallesi, Marmara Caddesi BayraklI Sokak No:2/;28.845875;41.014027
Bahçelievler;Kuyumcu kent Atölye DurağI, 29 Ekim Cad. Ladin Sok. K:1, Sk:9, No:6;28.816900;41.001235
Bahçelievler;KUYUMCUKENT ATÖLYELER BLOK 8K1 NO:9;28.818688;41.003289
Bahçelievler;Kültür Sok. No:2;28.863805;40.995513
Bahçelievler;MAHMUTBEY CAD MAHMUTBEY CAD NO:22;28.842097;41.015246
Bahçelievler;Mahmutbey Mahmutbey No:272/A;28.84041;41.020309
Bahçelievler;Mareşal Fevzi Çakmak Cad.  1.Sok No:1/2;28.845575;40.992176
Bahçelievler;Merkez Mah. Deli Hüseyinpaşa Cad. NO:63A;28.86135757;41.00754034
Bahçelievler;MERKEZ MAH. FATIH CAD. NO:119;28.830689;41.008273
Bahçelievler;Merkez Mah. Mithatpaşa Cad. Reyhan Sok. No:1;28.47199;41.00133
Bahçelievler;Merkez mahmut Bey Cd 150B;28.841458;41.005356
Bahçelievler;Mithat paşa Cad. No:2;28.835102;40.994659
Bahçelievler;Nehir Unlu Mamül. GIda San. Tic. Ltd. şti.;28.872884;40.998600
Bahçelievler;Osmangazi Sok.AyaydIn Apt. 19/A;28.845529082831200;41.1019994057525500
Bahçelievler;SIYAVUS PASA FERIT SELIM PASA NO:23 YAYLA;28.859248;41.003632
Bahçelievler;SIYAVUSPASA MAH MUSTAFA KEMAL PASA CAD NO:21;28.852222;41.003626
Bahçelievler;SIYAVUSPASA MAH SIYAVUSPASA CAD NO:3/B;28.8561;40.9982
Bahçelievler;SIYAVUşAPAşA MH. LAVANTA SK.BarIş Savaş Ap.Bodrum Kat No:6;28.85934;41.00187
Bahçelievler;SIYAVUşPAşA CAD. No:50 No:50;28.8529;41.0001
Bahçelievler;SIYAVUşPAşA MAH. Mustafa Kemal Paşa cd. No:72;28.8526;41.0058
Bahçelievler;SIYAVUşPAşA MH. UlubatlI Hasan Cd. 39;28.856017;41.0059
Bahçelievler;Siyavuspaşa  Cad.  No:4/D;28.856536;40.998226
Bahçelievler;Siyavuspaşa  Mah.   M. Kemal Paşa Cad.  No: 45/B ;28.852807;41.005897
Bahçelievler;Siyavuspaşa Mah.  ÇamlIk Cad. 26/A;28.857124;41.001564
Bahçelievler;Siyavuspaşa Mah. Ferit Selim Paşa Cad. KIzIlcIk Sok No:13/2;28.859207;41.003399
Bahçelievler;SIYAVUşPAşA CAD OKUL SK NO:18/2;28.85396;40.998787
Bahçelievler;SIYAVUşPAşA MAH CEM SULTAN SOK NO: 5/A-B;28.852477;40.995369
Bahçelievler;SIYAVUşPAşA MAH MUSTAFA KEMAL PAşA CAD NO:15;28.852053;41.003075
Bahçelievler;Siyavuşpaşa Mah Zümrüt Sok No : 2 A;28.85140986901480;40.95213320965800
Bahçelievler;Siyavuşpaşa Mah. Barbaros 2 Sok. No:42/A;28.85416884244740;40.099750301616140
Bahçelievler;Siyavuşpaşa Mah. Filiz Sok. No:21/A;28.854627608199976;41.00621787195998
Bahçelievler;Siyavuşpaşa Mah. Leylak Sok. No:18/A;28.854926555941200;41.1000586112478100
Bahçelievler;Siyavuşpaşa Mah. Mustafa Kemal Paşa Cad. No:1;28.8496503;41.002135
Bahçelievler;Siyavuşpaşa Mah. Nilüfer 1 Sok. No:1/A;28.854465201408100;40.0998621517043400
Bahçelievler;Siyavuşpaşa Mah. Sümbül 1 Sok. 45 C;28.51091;41.00022
Bahçelievler;Siyavuşpaşa Mahallesi Barbaros Caddesi No:16;28.851809;40.998057
Bahçelievler;SIYAVUşPAşA MAHALLESI OğUZHAN SOKAK, NO:34/C;28.849609;41.004334
Bahçelievler;SIYAVUşPAşA MAHALLESI SARDUNYA SOKAK NO:14;28.858117;41.005711
Bahçelievler;SIYAVUşPAşA MAHALLESI, ESENLER SOKAK, NO:12/A;28.851653;41.00647
Bahçelievler;Siyavuzpaşa Mah ÇamlIk Cad No:6;28.857353;40.999546
Bahçelievler;SOGANLI MAH NECATI ÜÇLER CAD NO18/A;28.85499;41.013145
Bahçelievler;SOğANLI MAH ÇAVUşPAşA CAD  SERAY SOK NO:55;28.850379;41.011402
Bahçelievler;SOğANLI MAH ÇAVUşPAşA CAD NO:58/2;28.849496;41.007325
Bahçelievler;SOğANLI MAH FERIT SELIM PAşA CAD NO:59;28.858817;41.007307
Bahçelievler;SOğANLI MAH NILÜFER SOK NO:12/A-B;28.861352;41.012386
Bahçelievler;SoğanlI Mah.  Mimar Sinan Cad.  No:52;28.851840;41.014362
Bahçelievler;SoğanlI Mah. Alsancak Sok. No:5-7/B;28.858520704500616;41.009461863195725
Bahçelievler;SoğanlI Mah. Bilge Sok. NO:1A;28.850291;41.010378
Bahçelievler;SoğanlI Mah. Çavuş Paşa Cad. No:8;28.850025;41.011981
Bahçelievler;SoğanlI Mah. Çavuşpaşa Cad. No:46/A;28.849609611764400;41.100858368600180
Bahçelievler;SoğanlI Mah. Edirne Cad. No:9/B;28.858819004500827;41.01430739248633
Bahçelievler;SoğanlI Mah. Erman Sok. 17/A;28.85603909591788;41.00871019539601
Bahçelievler;SoğanlI Mah. Ferit Selim Paşa Cad. Sevinç Sok. No:34/C;28.861064;41.011262
Bahçelievler;SoğanlI Mah. Gökçe Sok. No:11/A;28.86329078671253;41.01282258672659
Bahçelievler;SoğanlI Mah. Güneş Sok. No.2/A;28.849842;41.008125
Bahçelievler;SoğanlI Mah. Kemal Sunal Cad. No:8 A;28.50496;41.00251
Bahçelievler;SoğanlI Mah. M. Kemal Paşa Cad. No:75/A;28.854272;41.008460
Bahçelievler;SoğanlI Mah. M. Sinan Cad. HacI ali Sok. No:1/A;28.850669;41.013648
Bahçelievler;SoğanlI Mah. Mimarsinan Cad. No:62/B;28.85312860511306;41.0142438979813
Bahçelievler;SoğanlI Mah. Mustafa Kemal Cad. No:106/A;28.853751;41.007929
Bahçelievler;SOğANLI MAH. NECATI ÜÇLER CAD. No:17;28.854247;41.013019
Bahçelievler;SOğANLI MAH. NecatIbey Cad. No:15;28.8581;41.0131
Bahçelievler;SoğanlI Mah. Sokullu Sok. No:62A;28.853517213708937;41.01151689997007
Bahçelievler;SOğANLI MAHALLESI HALIDE EDIPADIVAR CADDESI NO:32/A;28.853426;41.011657
Bahçelievler;SOğANLI MAHALLESI MIMARSINAN CADDESI NO:66/A;28.853641;41.014359
Bahçelievler;SOğANLI MAHALLESI SEVINÇ SOKAK NO:10/A;28.857898;41.012869
Bahçelievler;SoğanlI Mh Çavuşpaşa Caddesi No : 38;28.849663;41.007026
Bahçelievler;SoğanlI Mh Halide Edip AdIvar Caddesi No : 27;28.853582;41.011619
Bahçelievler;SOğANLI MH. Çavuşpaşa Cd. No:20;28.849934;41.010701
Bahçelievler;SOğANLI MH. Turgut Sokak 116/1;28.854504;41.008726
Bahçelievler;SOğANLI MUSTAFA KEMAL PASA NO:176/A;28.85712773;41.01339163
Bahçelievler;şIRINEVLER MAH. Çavuşpaşa Cad. No:72;28.8493;41.0059
Bahçelievler;şIRINEVLER MAH. şEHIT YARBAY CESUR Cad.Bayburt Sok. No:11/1;28.8484;40.9959
Bahçelievler;şIRINEVLER MH. Adnan Kahveci BulvarI (Eski Lon 202;28.849757;40.992712
Bahçelievler;şIRINEVLER MH. Gediz Sokak 6;28.844862;40.992937
Bahçelievler;şIRINEVLER MH. Mahmutbey 11. Sk. No:1;28.844382;40.999122
Bahçelievler;şIRINEVLER MH. SARAY CD.Bentler sk. No:1;28.849808;40.999561
